City ID,City,Country,Date,Lat,Lng,Max Temp,Humidity,Cloudiness,Wind Speed
0,Codrington,AU,2022-10-16 01:33:35,-38.2667,141.9667,56.95,68,41,8.55
1,Kralendijk,BQ,2022-10-16 01:33:35,12.15,-68.2667,82.38,78,20,11.5
2,Qurayyat,SA,2022-10-16 01:33:36,31.3318,37.3428,62.78,48,0,4.61
3,Najran,SA,2022-10-16 01:33:36,17.4924,44.1277,63.25,27,100,2.35
4,Vilhena,BR,2022-10-16 01:30:54,-12.7406,-60.1458,69.69,87,98,3.36
5,Saint-Francois,FR,2022-10-16 01:33:36,46.4154,3.9054,56.68,100,0,0.0
6,Lasa,IT,2022-10-16 01:33:37,46.6166,10.7002,58.08,94,97,2.59
7,Hermanus,ZA,2022-10-16 01:33:37,-34.4187,19.2345,61.81,90,60,10.85
8,Hobart,AU,2022-10-16 01:33:37,-42.8794,147.3294,56.26,64,75,10.36
9,Tilichiki,RU,2022-10-16 01:33:37,60.4667,166.1,32.25,93,100,7.18
10,Ushuaia,AR,2022-10-16 01:29:24,-54.8,-68.3,42.46,49,0,6.91
11,Kodiak,US,2022-10-16 01:33:38,57.79,-152.4072,53.11,71,100,3.44
12,Tuktoyaktuk,CA,2022-10-16 01:33:38,69.4541,-133.0374,23.0,80,75,10.36
13,Provideniya,RU,2022-10-16 01:33:38,64.3833,-173.3,29.25,75,100,13.71
14,Linhai,CN,2022-10-16 01:33:39,28.85,121.1167,68.94,72,100,10.0
15,Khatanga,RU,2022-10-16 01:33:39,71.9667,102.5,24.66,90,100,12.46
16,Naze,JP,2022-10-16 01:33:39,28.3667,129.4833,81.52,83,77,10.76
17,Hofn,IS,2022-10-16 01:33:40,64.2539,-15.2082,39.51,60,17,22.3
18,Vaini,TO,2022-10-16 01:33:40,-21.2,-175.2,80.76,74,75,5.75
19,Fortuna,US,2022-10-16 01:33:40,40.5982,-124.1573,58.93,84,0,11.5
20,Komsomolskiy,UZ,2022-10-16 01:33:40,40.4272,71.7189,52.52,46,3,6.91
21,Xinqing,CN,2022-10-16 01:33:41,48.2333,129.5,43.43,34,0,12.08
22,Berdigestyakh,RU,2022-10-16 01:29:17,62.0989,126.6992,23.58,94,100,5.82
23,Nanortalik,GL,2022-10-16 01:33:41,60.1432,-45.2371,35.62,69,0,15.1
24,Butaritari,KI,2022-10-16 01:33:41,3.0707,172.7902,81.61,71,0,19.3
25,Dikson,RU,2022-10-16 01:33:41,73.5069,80.5464,32.34,81,31,11.7
26,Muros,ES,2022-10-16 01:33:42,42.7762,-9.0603,64.09,92,100,16.93
27,Hithadhoo,MV,2022-10-16 01:33:42,-0.6,73.0833,81.18,68,92,14.67
28,Sehithwa,BW,2022-10-16 01:33:42,-20.4667,22.7167,74.71,20,100,6.67
29,Upernavik,GL,2022-10-16 01:33:42,72.7868,-56.1549,26.74,59,100,11.65
30,Albany,US,2022-10-16 01:32:49,42.6001,-73.9662,59.41,66,95,1.01
31,Zonguldak,TR,2022-10-16 01:33:43,41.25,31.8333,53.24,97,100,1.03
32,Husavik,IS,2022-10-16 01:33:43,66.0449,-17.3389,34.77,99,100,29.73
33,Mataura,NZ,2022-10-16 01:33:43,-46.1927,168.8643,56.48,73,100,3.98
34,Leningradskiy,RU,2022-10-16 01:33:44,69.3833,178.4167,12.56,86,36,4.45
35,Vuktyl,RU,2022-10-16 01:33:44,63.8567,57.3094,35.02,88,99,1.74
36,Port-Cartier,CA,2022-10-16 01:33:44,50.0334,-66.8654,48.42,99,100,6.53
37,Keti Bandar,PK,2022-10-16 01:33:45,24.1447,67.4497,79.84,67,61,13.31
38,Bluff,NZ,2022-10-16 01:33:45,-46.6,168.3333,56.8,71,46,10.22
39,Aktash,RU,2022-10-16 01:33:45,50.3,87.7333,30.0,35,69,4.12
40,Ensley,US,2022-10-16 01:33:45,30.5188,-87.2728,73.53,77,0,0.0
41,Panacan,PH,2022-10-16 01:33:46,9.2463,118.4082,85.46,68,100,5.01
42,Kardla,EE,2022-10-16 01:33:46,58.9978,22.7492,53.06,90,100,13.8
43,Torbat-E Jam,IR,2022-10-16 01:34:46,35.244,60.6225,64.96,16,0,7.63
44,Port Elizabeth,ZA,2022-10-16 01:34:46,-33.918,25.5701,62.89,94,100,16.11
45,Geraldton,AU,2022-10-16 01:34:47,-28.7667,114.6,68.41,52,100,21.85
46,Svetlogorsk,BY,2022-10-16 01:34:47,52.6333,29.7333,40.33,74,5,8.97
47,Srivardhan,IN,2022-10-16 01:34:47,18.0333,73.0167,76.59,74,75,6.71
48,Noumea,NC,2022-10-16 01:34:47,-22.2763,166.4572,84.18,62,0,14.41
49,Klaksvik,FO,2022-10-16 01:34:48,62.2266,-6.589,43.72,82,100,17.11
50,Airai,TL,2022-10-16 01:34:48,-8.9266,125.4092,75.49,50,100,4.74
51,Surgut,RU,2022-10-16 01:34:48,61.25,73.4167,35.78,86,0,4.47
52,Ribeira Grande,PT,2022-10-16 01:34:48,38.5167,-28.7,61.77,84,98,15.99
53,Kilindoni,TZ,2022-10-16 01:34:49,-7.9139,39.6668,75.45,79,99,11.41
54,Auki,SB,2022-10-16 01:34:49,-8.7676,160.7034,85.96,63,100,4.0
55,Katherine,AU,2022-10-16 01:34:49,-14.4667,132.2667,93.52,43,36,6.91
56,Kapaa,US,2022-10-16 01:31:40,22.0752,-159.319,85.98,66,0,14.97
57,Punta Arenas,CL,2022-10-16 01:31:49,-53.15,-70.9167,42.91,61,0,3.44
58,Pascagoula,US,2022-10-16 01:34:50,30.3658,-88.5561,72.41,91,0,0.0
59,Avanigadda,IN,2022-10-16 01:34:50,16.0215,80.9181,78.15,92,54,4.34
60,Bethel,US,2022-10-16 01:33:06,41.3712,-73.414,61.11,77,0,8.05
61,Cidreira,BR,2022-10-16 01:34:50,-30.1811,-50.2056,63.52,87,99,19.86
62,Hilo,US,2022-10-16 01:30:03,19.7297,-155.09,87.28,79,100,8.05
63,Bambanglipuro,ID,2022-10-16 01:34:51,-7.95,110.2833,81.19,76,100,7.45
64,Poroshkovo,UA,2022-10-16 01:34:51,48.6683,22.7533,48.02,89,8,3.29
65,General Roca,AR,2022-10-16 01:34:51,-39.0333,-67.5833,63.63,29,18,11.65
66,Yellowknife,CA,2022-10-16 01:34:51,62.456,-114.3525,25.32,63,20,4.61
67,Nikolskoye,RU,2022-10-16 01:34:52,59.7035,30.7861,48.09,84,99,8.19
68,Bredasdorp,ZA,2022-10-16 01:34:52,-34.5322,20.0403,57.85,96,98,7.78
69,Avera,US,2022-10-16 01:34:52,33.194,-82.5271,60.55,47,2,5.61
70,Kudahuvadhoo,MV,2022-10-16 01:34:53,2.6708,72.8944,80.6,77,100,17.29
71,Cherskiy,RU,2022-10-16 01:34:53,68.75,161.3,13.24,93,100,8.34
72,Nouadhibou,MR,2022-10-16 01:34:53,20.931,-17.0347,67.98,94,0,11.5
73,Rikitea,PF,2022-10-16 01:34:53,-23.1203,-134.9692,73.53,83,76,18.63
74,Hobyo,SO,2022-10-16 01:34:54,5.3505,48.5268,76.87,88,23,15.37
75,Puerto Ayora,EC,2022-10-16 01:34:54,-0.7393,-90.3518,65.55,97,78,8.01
76,Saint George,US,2022-10-16 01:33:59,37.1041,-113.5841,79.39,26,0,13.8
77,Talnakh,RU,2022-10-16 01:34:54,69.4865,88.3972,31.21,95,100,9.98
78,Port Lincoln,AU,2022-10-16 01:34:54,-34.7333,135.8667,61.48,60,4,7.67
79,Tiznit,MA,2022-10-16 01:34:55,29.5833,-9.5,75.88,30,100,3.6
80,Srednekolymsk,RU,2022-10-16 01:34:55,67.45,153.6833,13.3,88,73,6.87
81,Esperance,AU,2022-10-16 01:34:55,-33.8667,121.9,64.24,59,72,12.08
82,Mogoytuy,RU,2022-10-16 01:34:55,51.2833,114.9167,36.64,35,43,15.32
83,Berlevag,NO,2022-10-16 01:34:56,70.8578,29.0864,44.55,87,100,16.11
84,Adrar,MR,2022-10-16 01:34:56,20.5022,-10.0711,85.77,22,55,5.86
85,Grand-Bourg,GP,2022-10-16 01:34:56,15.8835,-61.3148,76.95,76,2,10.4
86,Fort Smith,US,2022-10-16 01:34:57,35.3859,-94.3986,69.85,89,100,6.91
87,Carnarvon,AU,2022-10-16 01:34:57,-24.8667,113.6333,68.81,61,66,17.38
88,Souillac,MU,2022-10-16 01:34:57,-20.5167,57.5167,70.18,78,75,6.91
89,Kualakapuas,ID,2022-10-16 01:34:57,-3.0091,114.3876,85.82,66,81,4.07
90,Olafsvik,IS,2022-10-16 01:34:58,64.8945,-23.7142,35.04,69,95,40.42
91,Petropavlovsk-Kamchatskiy,RU,2022-10-16 01:35:58,53.0452,158.6483,46.99,34,0,15.66
92,Taltal,CL,2022-10-16 01:35:58,-25.4,-70.4833,59.83,77,9,4.56
93,Jamestown,US,2022-10-16 01:35:58,42.097,-79.2353,44.71,78,0,4.61
94,Deer Lake,CA,2022-10-16 01:35:59,49.1667,-57.4316,35.46,100,0,4.61
95,Asfi,MA,2022-10-16 01:35:59,32.2994,-9.2372,75.51,51,98,7.47
96,Storforshei,NO,2022-10-16 01:35:59,66.4043,14.5233,42.66,100,100,2.3
97,Yulara,AU,2022-10-16 01:35:59,-25.2406,130.9889,85.26,30,0,7.52
98,Burnie,AU,2022-10-16 01:32:35,-41.0667,145.9167,53.94,55,97,7.2
99,Rjukan,NO,2022-10-16 01:36:00,59.8789,8.5941,41.04,95,100,3.67
100,Busselton,AU,2022-10-16 01:36:00,-33.65,115.3333,58.55,58,59,12.73
101,Aklavik,CA,2022-10-16 01:36:00,68.2191,-135.0107,22.23,76,100,10.71
102,Chokurdakh,RU,2022-10-16 01:36:01,70.6333,147.9167,8.82,90,100,9.89
103,Arraial Do Cabo,BR,2022-10-16 01:36:01,-22.9661,-42.0278,70.38,84,62,10.67
104,Touros,BR,2022-10-16 01:36:01,-5.1989,-35.4608,76.96,81,81,17.16
105,Yumen,CN,2022-10-16 01:36:02,40.2833,97.2,53.11,21,0,1.43
106,Los Llanos De Aridane,ES,2022-10-16 01:36:02,28.6585,-17.9182,67.75,79,75,5.99
107,Teacapan,MX,2022-10-16 01:36:02,22.55,-105.75,79.05,81,0,7.09
108,Kungurtug,RU,2022-10-16 01:36:02,50.5994,97.5228,28.9,36,0,1.39
109,Turangi,NZ,2022-10-16 01:36:03,-39.0,175.9333,64.4,34,76,2.91
110,Qaanaaq,GL,2022-10-16 01:36:03,77.484,-69.3632,30.96,81,100,30.69
111,Narsaq,GL,2022-10-16 01:36:04,60.9167,-46.05,26.91,72,0,8.25
112,Arlit,NE,2022-10-16 01:31:42,18.7369,7.3853,83.05,17,0,7.85
113,Victoria,HK,2022-10-16 01:32:43,22.2855,114.1577,84.25,48,99,18.99
114,Katsuura,JP,2022-10-16 01:36:04,35.1333,140.3,73.42,67,6,12.46
115,Benjamin Hill,MX,2022-10-16 01:36:04,30.1667,-111.1,67.78,74,4,13.27
116,Thio,NC,2022-10-16 01:36:04,-21.6167,166.2167,84.16,55,32,5.26
117,Broome,US,2022-10-16 01:36:05,42.2506,-75.833,52.18,76,0,12.66
118,San Ciro De Acosta,MX,2022-10-16 01:36:05,21.6333,-99.8167,66.96,91,31,3.96
119,Oktyabrskoye,RU,2022-10-16 01:36:06,43.0645,44.7417,50.14,100,100,2.24
120,Kalmar,SE,2022-10-16 01:36:06,56.6616,16.3616,55.96,98,100,12.66
121,Atuona,PF,2022-10-16 01:36:06,-9.8,-139.0333,76.87,74,15,12.24
122,Pingliang,CN,2022-10-16 01:36:06,35.5392,106.6861,56.66,26,32,5.75
123,Sur,OM,2022-10-16 01:36:07,22.5667,59.5289,78.35,32,25,4.29
124,Tasiilaq,GL,2022-10-16 01:36:07,65.6145,-37.6368,30.36,62,2,8.32
125,East London,ZA,2022-10-16 01:36:08,-33.0153,27.9116,65.84,83,100,20.11
126,Dolores,AR,2022-10-16 01:36:08,-36.3132,-57.6792,47.77,94,57,6.85
127,Avarua,CK,2022-10-16 01:36:08,-21.2078,-159.775,82.45,57,4,10.36
128,Clyde River,CA,2022-10-16 01:36:08,70.4692,-68.5914,41.23,75,0,25.32
129,Caravelas,BR,2022-10-16 01:36:09,-17.7125,-39.2481,73.63,77,20,8.43
130,Korla,CN,2022-10-16 01:36:09,41.7597,86.1469,58.03,25,14,1.14
131,Ilsede,DE,2022-10-16 01:36:09,52.2667,10.2,59.83,76,100,4.0
132,Flinders,AU,2022-10-16 01:36:10,-34.5833,150.8552,74.17,56,69,4.0
133,Cape Town,ZA,2022-10-16 01:34:46,-33.9258,18.4232,62.11,83,0,6.91
134,Saint Anthony,US,2022-10-16 01:36:10,45.0205,-93.218,49.93,65,100,11.5
135,Mahebourg,MU,2022-10-16 01:36:10,-20.4081,57.7,70.09,78,75,6.91
136,Shakiso,ET,2022-10-16 01:36:10,5.75,38.9167,57.51,96,92,1.34
137,Thompson,CA,2022-10-16 01:37:11,55.7435,-97.8558,28.56,86,100,11.5
138,Charyshskoye,RU,2022-10-16 01:37:11,51.3978,83.5598,47.39,42,97,4.88
139,Magistralnyy,RU,2022-10-16 01:37:11,56.1725,107.4458,30.52,69,49,1.41
140,Altus,US,2022-10-16 01:37:12,34.6381,-99.334,80.67,45,0,9.22
141,Sao Joao Da Barra,BR,2022-10-16 01:37:12,-21.6403,-41.0511,70.61,78,72,7.76
142,Resistencia,AR,2022-10-16 01:35:06,-27.4606,-58.9839,74.08,74,0,5.75
143,Bambari,CF,2022-10-16 01:37:12,5.768,20.6757,70.75,96,100,2.71
144,Yarmouth,US,2022-10-16 01:35:38,41.7057,-70.2286,57.97,95,0,5.01
145,Iqaluit,CA,2022-10-16 01:35:13,63.7506,-68.5145,33.53,100,100,4.61
146,Yar-Sale,RU,2022-10-16 01:37:13,66.8333,70.8333,37.98,88,100,4.59
147,Miri,MY,2022-10-16 01:37:13,4.4148,114.0089,80.74,89,20,4.61
148,Aksu,CN,2022-10-16 01:37:13,41.1231,80.2644,55.17,23,0,1.77
149,Anqiu,CN,2022-10-16 01:37:14,36.4342,119.1925,66.16,65,55,11.61
150,Zhezkazgan,KZ,2022-10-16 01:37:14,47.8043,67.7144,48.18,53,0,8.95
151,Salalah,OM,2022-10-16 01:37:14,17.0151,54.0924,73.49,46,0,2.3
152,Pevek,RU,2022-10-16 01:37:15,69.7008,170.3133,17.38,92,98,3.22
153,Celestun,MX,2022-10-16 01:37:15,20.8667,-90.4,80.38,83,10,12.37
154,Barrow,US,2022-10-16 01:37:15,71.2906,-156.7887,8.62,92,0,9.22
155,Ongandjera,NA,2022-10-16 01:37:16,-17.8833,15.0667,67.21,71,63,7.52
156,Treinta Y Tres,UY,2022-10-16 01:37:16,-33.2333,-54.3833,57.18,85,100,9.64
157,Ewa Beach,US,2022-10-16 01:37:16,21.3156,-158.0072,84.15,53,75,15.01
158,Satinka,RU,2022-10-16 01:37:17,52.3792,41.6819,43.74,59,100,2.86
159,Pompeu,BR,2022-10-16 01:37:17,-19.2244,-44.9353,72.25,50,71,9.37
160,Ust-Nera,RU,2022-10-16 01:37:17,64.5667,143.2,9.84,90,63,4.7
161,Severo-Kurilsk,RU,2022-10-16 01:37:17,50.6789,156.125,44.42,73,10,15.75
162,Miranda,CO,2022-10-16 01:37:18,3.2499,-76.2281,68.13,93,85,4.25
163,Georgetown,MY,2022-10-16 01:37:18,5.4112,100.3354,76.95,98,40,3.44
164,Adre,TD,2022-10-16 01:37:19,13.4667,22.2,75.13,29,41,8.43
165,Gemena,CD,2022-10-16 01:37:19,3.25,19.7667,67.95,97,95,2.44
166,Beringovskiy,RU,2022-10-16 01:37:19,63.05,179.3167,28.98,66,100,16.93
167,Redlands,US,2022-10-16 01:34:56,34.0556,-117.1825,66.94,89,100,1.99
168,Itarema,BR,2022-10-16 01:37:19,-2.9248,-39.9167,78.58,83,7,17.2
169,La Ronge,CA,2022-10-16 01:37:20,55.1001,-105.2842,34.05,51,0,8.05
170,Sinnamary,GF,2022-10-16 01:37:20,5.3833,-52.95,79.3,87,10,9.13
171,Lebu,CL,2022-10-16 01:37:20,-37.6167,-73.65,50.79,87,83,16.51
172,Diamantino,BR,2022-10-16 01:37:21,-14.4086,-56.4461,80.15,58,81,4.65
173,Tarko-Sale,RU,2022-10-16 01:37:21,64.9225,77.785,35.2,83,100,8.43
174,Haines Junction,CA,2022-10-16 01:37:21,60.7522,-137.5108,33.75,93,89,5.75
175,Yenagoa,NG,2022-10-16 01:37:22,4.9247,6.2642,74.55,94,100,3.36
176,Klichka,RU,2022-10-16 01:37:22,50.4457,117.996,34.18,49,85,13.98
177,Tuatapere,NZ,2022-10-16 01:37:22,-46.1333,167.6833,58.84,67,35,6.22
178,Toyooka,JP,2022-10-16 01:37:23,35.5333,134.8333,69.85,88,20,3.44
179,Hornepayne,CA,2022-10-16 01:37:23,49.2138,-84.7705,36.57,97,100,6.44
180,Belmonte,BR,2022-10-16 01:37:24,-15.8631,-38.8828,73.4,84,59,10.07
181,Karpathos,GR,2022-10-16 01:37:24,35.507,27.2132,67.44,83,100,20.8
182,Guerrero Negro,MX,2022-10-16 01:32:30,27.9769,-114.0611,69.66,68,4,11.48
183,Liverpool,GB,2022-10-16 01:37:24,53.4106,-2.9779,52.14,85,40,10.36
184,Cancun,MX,2022-10-16 01:35:21,21.1743,-86.8466,82.33,83,20,0.0
185,North Bend,US,2022-10-16 01:37:25,43.4065,-124.2243,58.91,92,0,4.61
186,Wuan,CN,2022-10-16 01:38:25,31.6836,112.0044,73.74,42,85,7.72
187,Sechura,PE,2022-10-16 01:38:26,-5.5569,-80.8222,62.8,80,100,15.64
188,Marietta,US,2022-10-16 01:34:35,33.9526,-84.5499,67.3,71,0,1.01
189,Bandarbeyla,SO,2022-10-16 01:38:26,9.4942,50.8122,77.81,84,88,6.33
190,Vetlanda,SE,2022-10-16 01:38:26,57.4289,15.0776,52.14,93,100,8.81
191,Hasaki,JP,2022-10-16 01:38:27,35.7333,140.8333,75.6,66,2,11.52
192,Kangavar,IR,2022-10-16 01:38:27,34.5043,47.9653,56.1,32,96,0.92
193,Narrabri,AU,2022-10-16 01:38:27,-30.3167,149.7833,73.53,51,8,3.0
194,Darhan,MN,2022-10-16 01:38:27,49.4867,105.9228,33.12,48,0,3.24
195,Almaznyy,RU,2022-10-16 01:38:28,48.0448,40.045,37.92,77,16,8.79
196,Abu Road,IN,2022-10-16 01:38:28,24.4833,72.7833,74.61,47,9,2.21
197,Narovchat,RU,2022-10-16 01:38:29,53.8765,43.6946,43.54,58,100,3.94
198,Black Forest,US,2022-10-16 01:38:29,39.0131,-104.7008,52.79,47,100,12.66
199,Tiksi,RU,2022-10-16 01:38:29,71.6872,128.8694,22.37,83,100,20.74
200,Viedma,AR,2022-10-16 01:38:29,-40.8135,-62.9967,58.57,38,100,12.5
201,Namibe,AO,2022-10-16 01:38:30,-15.1961,12.1522,68.31,87,98,1.16
202,Nanhai,CN,2022-10-16 01:38:30,30.1282,111.7784,76.23,43,20,7.11
203,Khani,GE,2022-10-16 01:38:30,41.9563,42.9566,49.57,82,100,2.35
204,Sao Filipe,CV,2022-10-16 01:38:31,14.8961,-24.4956,76.95,73,44,6.24
205,Rincon,US,2022-10-16 01:38:31,32.296,-81.2354,70.86,63,0,4.61
206,Nenton,GT,2022-10-16 01:38:31,15.8,-91.75,68.22,94,82,3.87
207,Kachkanar,RU,2022-10-16 01:38:32,58.7,59.4948,40.64,81,100,7.61
208,Carauari,BR,2022-10-16 01:38:32,-4.8828,-66.8958,74.53,89,100,3.22
209,Kalmunai,LK,2022-10-16 01:38:32,7.4167,81.8167,79.12,80,100,4.07
210,Torbay,CA,2022-10-16 01:35:35,47.6666,-52.7314,49.26,94,75,11.5
211,Hvizd,UA,2022-10-16 01:38:32,48.6852,24.5506,44.17,84,0,3.11
212,Margate,GB,2022-10-16 01:38:33,51.3813,1.3862,58.3,84,37,1.99
213,Nieuw Amsterdam,SR,2022-10-16 01:38:33,5.8833,-55.0833,80.02,89,19,8.77
214,Sitamau,IN,2022-10-16 01:38:33,24.0167,75.35,68.56,62,5,3.06
215,Mecca,SA,2022-10-16 01:38:34,21.4267,39.8261,79.88,50,0,3.44
216,Mataram,ID,2022-10-16 01:38:34,-8.5833,116.1167,86.81,67,69,8.14
217,Bonavista,CA,2022-10-16 01:38:34,48.6499,-53.1147,52.0,79,100,7.56
218,Kabul,AF,2022-10-16 01:36:23,34.5,69.4167,52.95,19,0,4.41
219,Dhidhdhoo,MV,2022-10-16 01:38:35,6.8833,73.1,80.51,81,94,16.53
220,Scottsbluff,US,2022-10-16 01:37:41,41.8666,-103.6672,53.83,57,0,9.22
221,Juegang,CN,2022-10-16 01:38:35,32.3174,121.1855,68.2,65,29,8.7
222,Waingapu,ID,2022-10-16 01:38:35,-9.6567,120.2641,87.33,60,100,11.43
223,Mount Gambier,AU,2022-10-16 01:35:26,-37.8333,140.7667,60.51,58,41,6.64
224,Nan,TH,2022-10-16 01:38:35,18.8333,100.6667,69.82,88,75,5.75
225,Saint-Joseph,RE,2022-10-16 01:38:36,-21.3667,55.6167,70.47,77,22,9.24
226,Aswan,EG,2022-10-16 01:34:05,24.0934,32.907,76.3,27,0,5.75
227,Olinda,BR,2022-10-16 01:38:36,-8.0089,-34.8553,78.53,69,40,11.5
228,Whyalla,AU,2022-10-16 01:38:36,-33.0333,137.5833,63.59,55,5,12.12
229,Castro,BR,2022-10-16 01:38:37,-24.7911,-50.0119,57.16,97,100,8.88
230,Bemidji,US,2022-10-16 01:38:37,47.4736,-94.8803,42.06,84,100,13.8
231,Puerto Quijarro,BO,2022-10-16 01:38:37,-17.7833,-57.7667,73.04,92,83,3.69
232,Port Hawkesbury,CA,2022-10-16 01:38:37,45.6169,-61.3485,57.81,99,100,14.97
233,Saquarema,BR,2022-10-16 01:38:38,-22.92,-42.5103,67.71,90,79,8.55
234,Calabozo,VE,2022-10-16 01:38:38,8.9242,-67.4293,75.74,86,51,4.52
235,Chuy,UY,2022-10-16 01:39:38,-33.6971,-53.4616,57.02,89,100,13.47
236,Yilan,TW,2022-10-16 01:39:38,24.757,121.753,82.36,99,100,13.24
237,Gizo,SB,2022-10-16 01:39:39,-8.103,156.8419,84.16,70,96,1.16
238,Cabo San Lucas,MX,2022-10-16 01:39:39,22.8909,-109.9124,81.7,69,20,12.66
239,Passos,BR,2022-10-16 01:39:39,-20.7189,-46.6097,70.11,52,100,4.76
240,Merauke,ID,2022-10-16 01:39:40,-8.4667,140.3333,86.54,70,74,6.22
241,Zhigansk,RU,2022-10-16 01:39:40,66.7697,123.3711,22.24,92,100,10.49
242,Christchurch,NZ,2022-10-16 01:35:27,-43.5333,172.6333,67.48,52,0,5.75
243,Shadegan,IR,2022-10-16 01:39:40,30.6497,48.6647,73.35,53,12,3.71
244,Kabompo,ZM,2022-10-16 01:39:40,-13.5927,24.2008,61.61,27,4,5.82
245,Colmenar Viejo,ES,2022-10-16 01:39:41,40.6591,-3.7676,62.89,58,72,1.72
246,New Norfolk,AU,2022-10-16 01:39:41,-42.7826,147.0587,55.92,53,97,5.99
247,Kristiinankaupunki,FI,2022-10-16 01:39:41,62.2743,21.376,51.42,98,100,9.26
248,Necochea,AR,2022-10-16 01:39:41,-38.5473,-58.7368,47.59,76,0,11.1
249,Nabire,ID,2022-10-16 01:39:42,-3.3667,135.4833,85.86,67,100,4.7
250,Tuy Hoa,VN,2022-10-16 01:39:42,13.0833,109.3,81.0,79,85,5.57
251,Faanui,PF,2022-10-16 01:39:42,-16.4833,-151.75,78.87,77,40,17.2
252,Vestmannaeyjar,IS,2022-10-16 01:39:43,63.4427,-20.2734,39.83,65,96,28.61
253,Dwarka,IN,2022-10-16 01:39:43,22.2394,68.9678,81.32,62,26,9.86
254,Xining,CN,2022-10-16 01:39:43,36.6167,101.7667,43.5,49,2,2.37
255,Beloha,MG,2022-10-16 01:39:43,-25.1667,45.05,67.77,93,54,5.57
256,Portland,US,2022-10-16 01:39:23,45.5234,-122.6762,82.99,32,0,13.8
257,Port Alfred,ZA,2022-10-16 01:39:44,-33.5906,26.891,63.18,95,100,5.99
258,Maragogi,BR,2022-10-16 01:39:44,-9.0122,-35.2225,74.28,84,10,8.21
259,Tornio,FI,2022-10-16 01:39:44,65.8481,24.1466,50.02,86,100,18.28
260,Adzope,CI,2022-10-16 01:39:44,6.1069,-3.8619,71.89,99,100,2.37
261,Devonport,AU,2022-10-16 01:39:45,-41.1667,146.35,57.09,46,92,8.9
262,Dingle,PH,2022-10-16 01:39:45,10.9995,122.6711,80.2,84,100,9.91
263,Saint-Philippe,RE,2022-10-16 01:39:45,-21.3585,55.7679,65.79,78,45,7.92
264,Prainha,BR,2022-10-16 01:39:46,-1.8,-53.48,74.32,90,89,1.07
265,Baykit,RU,2022-10-16 01:39:46,61.67,96.37,30.2,83,100,1.9
266,Arman,RU,2022-10-16 01:39:46,59.7,150.1667,30.02,47,35,3.33
267,Kaka,TM,2022-10-16 01:39:46,37.3482,59.6143,65.91,20,0,3.31
268,Suntar,RU,2022-10-16 01:39:47,62.1444,117.6319,31.82,93,100,8.21
269,Honiara,SB,2022-10-16 01:39:47,-9.4333,159.95,87.1,62,100,4.9
270,Banjar,ID,2022-10-16 01:39:47,-8.19,114.9675,87.53,65,100,1.95
271,Senanga,ZM,2022-10-16 01:39:47,-16.1167,23.2667,68.54,22,19,8.19
272,Pundaguitan,PH,2022-10-16 01:39:48,6.3711,126.1689,84.36,72,100,4.47
273,Kapustin Yar,RU,2022-10-16 01:39:48,48.5831,45.7372,40.51,68,1,7.18
274,Peleduy,RU,2022-10-16 01:39:48,59.6289,112.7406,31.8,79,100,10.22
275,Huadian,CN,2022-10-16 01:39:48,42.9633,126.7478,49.05,48,100,8.3
276,Nanchang,CN,2022-10-16 01:39:49,28.6833,115.8833,74.62,39,0,13.82
277,Udachnyy,RU,2022-10-16 01:39:49,66.4167,112.4,22.35,91,100,4.23
278,Longyearbyen,SJ,2022-10-16 01:39:49,78.2186,15.6401,24.64,68,0,13.8
279,Mayskiy,RU,2022-10-16 01:39:50,47.6931,40.1025,40.41,71,12,11.18
280,Jumla,NP,2022-10-16 01:39:50,29.2747,82.1838,53.87,51,0,2.77
281,Lompoc,US,2022-10-16 01:39:50,34.6391,-120.4579,66.34,86,100,5.75
282,Rensvik,NO,2022-10-16 01:39:50,63.1,7.8167,48.47,49,40,5.75
283,Mount Pleasant,US,2022-10-16 01:40:51,32.7941,-79.8626,62.74,86,0,0.0
284,Fort Nelson,CA,2022-10-16 01:40:51,58.8053,-122.7002,36.99,65,75,4.61
285,Plettenberg Bay,ZA,2022-10-16 01:40:51,-34.0527,23.3716,62.13,83,100,7.31
286,Mackenzie,CA,2022-10-16 01:40:51,55.2999,-123.1698,57.42,58,0,4.61
287,Santa Rosa,PH,2022-10-16 01:40:52,14.3122,121.1114,87.12,73,100,13.4
288,Ucluelet,CA,2022-10-16 01:40:52,48.9329,-125.5528,66.51,77,6,4.45
289,Itoman,JP,2022-10-16 01:40:52,26.1247,127.6694,87.82,74,75,21.85
290,Neiafu,TO,2022-10-16 01:40:52,-18.65,-173.9833,83.08,78,20,10.36
291,Kidodi,TZ,2022-10-16 01:40:53,-7.6036,37.0044,65.37,92,45,1.01
292,Kidal,ML,2022-10-16 01:40:53,18.4411,1.4078,80.78,11,0,10.36
293,Saskylakh,RU,2022-10-16 01:40:53,71.9167,114.0833,30.69,88,100,16.91
294,Zuenoula,CI,2022-10-16 01:40:53,7.4292,-6.0431,70.75,99,100,5.93
295,Nizhniy Tsasuchey,RU,2022-10-16 01:40:54,50.5167,115.1333,38.01,34,47,17.65
296,Cayenne,GF,2022-10-16 01:40:54,4.9333,-52.3333,77.04,94,20,0.0
297,Gazojak,TM,2022-10-16 01:40:54,41.1875,61.4036,59.9,36,63,7.85
298,Concepcion Del Uruguay,AR,2022-10-16 01:40:54,-32.4825,-58.2372,58.98,81,97,1.99
299,Formosa Do Rio Preto,BR,2022-10-16 01:40:55,-11.0483,-45.1931,78.33,34,30,5.86
300,Huntsville,US,2022-10-16 01:40:55,34.7304,-86.5861,64.2,75,0,7.0
301,Lagoa,PT,2022-10-16 01:40:55,39.05,-27.9833,63.95,66,81,25.84
302,Nome,US,2022-10-16 01:40:56,64.5011,-165.4064,35.67,38,0,14.97
303,Fredericksburg,US,2022-10-16 01:40:56,38.3032,-77.4605,67.95,70,0,6.91
304,Natitingou,BJ,2022-10-16 01:40:56,10.3042,1.3796,70.05,91,49,3.02
305,Teknaf,BD,2022-10-16 01:40:56,20.8624,92.3058,82.58,78,84,3.49
306,Jacmel,HT,2022-10-16 01:40:57,18.2342,-72.5347,82.24,82,100,2.55
307,Saurimo,AO,2022-10-16 01:40:57,-9.6608,20.3916,66.79,83,100,9.01
308,Ilulissat,GL,2022-10-16 01:40:57,69.2167,-51.1,32.02,37,70,17.27
309,Maputo,MZ,2022-10-16 01:40:57,-25.9653,32.5892,67.68,77,75,12.66
310,Van Buren,US,2022-10-16 01:40:58,35.4368,-94.3483,68.29,88,100,6.91
311,Baruun-Urt,MN,2022-10-16 01:40:58,46.6806,113.2792,30.76,41,0,16.33
312,Sitka,US,2022-10-16 01:40:58,57.0531,-135.33,57.09,88,75,13.8
313,Lata,PT,2022-10-16 01:40:58,40.1629,-8.3327,63.81,95,32,3.2
314,Cape Canaveral,US,2022-10-16 01:40:58,28.4058,-80.6048,80.67,76,0,11.5
315,Gamba,GA,2022-10-16 01:40:59,-2.65,10.0,74.12,90,100,3.74
316,Norman Wells,CA,2022-10-16 01:40:59,65.282,-126.8329,28.44,59,100,16.11
317,San Policarpo,PH,2022-10-16 01:40:59,12.1791,125.5072,88.36,62,100,4.23
318,Fomboni,KM,2022-10-16 01:41:00,-12.28,43.7425,76.19,74,12,9.04
319,Kovdor,RU,2022-10-16 01:41:00,67.5662,30.4758,43.68,95,100,8.21
320,Calvinia,ZA,2022-10-16 01:41:00,-31.4707,19.776,63.7,59,100,9.42
321,Chicama,PE,2022-10-16 01:41:00,-7.8447,-79.1469,59.54,80,91,6.78
322,Sibolga,ID,2022-10-16 01:41:01,1.7427,98.7792,75.58,91,100,1.34
323,Kauhajoki,FI,2022-10-16 01:41:01,62.4333,22.1833,51.78,97,100,7.85
324,Springbok,ZA,2022-10-16 01:41:01,-29.6643,17.8865,64.56,54,100,6.96
325,Chara,RU,2022-10-16 01:41:02,56.9064,118.2631,23.99,71,45,1.95
326,Takoradi,GH,2022-10-16 01:41:02,4.8845,-1.7554,76.6,87,100,7.74
327,Begichevskiy,RU,2022-10-16 01:41:02,53.7961,38.255,37.54,79,18,6.44
328,Faya,SA,2022-10-16 01:41:03,18.3851,42.4509,57.31,29,41,4.54
329,Staryy Nadym,RU,2022-10-16 01:41:03,65.6118,72.6842,35.76,86,96,5.59
330,Kysyl-Syr,RU,2022-10-16 01:41:03,63.8986,122.7617,28.08,90,100,7.11
331,Boende,CD,2022-10-16 01:41:04,-0.2167,20.8667,68.65,92,99,2.71
332,Nemuro,JP,2022-10-16 01:42:04,43.3236,145.575,58.69,82,0,5.66
333,Gallup,US,2022-10-16 01:42:05,35.5281,-108.7426,64.24,27,0,8.05
334,Aranos,NA,2022-10-16 01:42:05,-24.1333,19.1167,65.43,67,100,19.24
335,Sulina,RO,2022-10-16 01:42:05,45.1559,29.6536,53.51,64,47,10.56
336,Tokmak,UA,2022-10-16 01:42:06,47.2514,35.7058,41.79,65,100,10.69
337,Koumac,NC,2022-10-16 01:42:06,-20.5667,164.2833,75.96,68,82,5.5
338,Sanawad,IN,2022-10-16 01:42:06,22.1833,76.0667,67.8,74,66,5.17
339,Luderitz,NA,2022-10-16 01:42:07,-26.6481,15.1594,57.92,87,83,3.85
340,Bambous Virieux,MU,2022-10-16 01:42:07,-20.3428,57.7575,70.05,78,75,6.91
341,Biu,NG,2022-10-16 01:42:07,10.6129,12.1946,69.73,36,15,2.75
342,Kuala Pilah,MY,2022-10-16 01:42:07,2.7389,102.2487,81.9,77,74,4.27
343,Carmo Do Rio Claro,BR,2022-10-16 01:42:08,-20.9719,-46.1189,70.21,57,98,7.61
344,Mar Del Plata,AR,2022-10-16 01:42:08,-38.0023,-57.5575,55.87,81,0,11.01
345,El Tocuyo,VE,2022-10-16 01:42:08,9.7873,-69.7937,71.06,94,45,4.5
346,Kaitangata,NZ,2022-10-16 01:42:09,-46.2817,169.8464,57.43,77,74,3.56
347,Egvekinot,RU,2022-10-16 01:42:09,66.3167,-179.1667,13.41,80,88,11.74
348,Luau,AO,2022-10-16 01:42:09,-10.7073,22.2247,64.31,80,18,1.7
349,Maniitsoq,GL,2022-10-16 01:42:09,65.4167,-52.9,34.27,57,99,3.96
350,Alexandria,EG,2022-10-16 01:40:49,31.2156,29.9553,70.34,62,0,9.62
351,Jinchang,CN,2022-10-16 01:42:10,38.4953,102.1739,53.22,26,6,3.02
352,Taranagar,IN,2022-10-16 01:42:10,28.6709,75.0351,76.26,38,0,4.74
353,Huanren,CN,2022-10-16 01:42:11,41.2647,125.3667,50.45,53,100,7.09
354,Abu Dhabi,AE,2022-10-16 01:39:28,24.4667,54.3667,82.96,75,0,4.61
355,Tallahassee,US,2022-10-16 01:40:15,30.4383,-84.2807,69.64,72,0,0.0
356,Soure,BR,2022-10-16 01:42:11,-0.7167,-48.5233,81.03,77,22,9.8
357,Mayo,US,2022-10-16 01:42:12,38.8876,-76.5119,64.94,88,0,5.75
358,Russell,US,2022-10-16 01:42:13,32.3502,-85.1999,65.43,94,0,0.0
359,Truro,GB,2022-10-16 01:40:33,50.2653,-5.0544,56.16,82,75,9.22
360,Virginia Beach,US,2022-10-16 01:38:32,36.8529,-75.978,68.02,67,0,6.91
361,Skjervoy,NO,2022-10-16 01:42:13,70.0311,20.9714,48.2,77,100,10.16
362,Wajir,KE,2022-10-16 01:42:14,1.7471,40.0573,75.22,70,100,14.5
363,Saint-Augustin,CA,2022-10-16 01:42:14,51.226,-58.6502,48.63,83,100,1.99
364,Vila Velha,BR,2022-10-16 01:42:14,-20.3297,-40.2925,75.15,80,75,9.22
365,Soledade,BR,2022-10-16 01:42:15,-28.8183,-52.5103,57.99,93,100,9.98
366,Padang,ID,2022-10-16 01:42:15,-0.9492,100.3543,77.05,92,100,4.0
367,Murray Bridge,AU,2022-10-16 01:42:16,-35.1167,139.2667,66.34,48,0,6.06
368,Pochutla,MX,2022-10-16 01:42:16,15.7432,-96.4661,78.82,93,95,2.51
369,Kamenka,RU,2022-10-16 01:42:16,51.3223,42.7678,36.14,75,18,3.22
370,Brae,GB,2022-10-16 01:42:17,60.3964,-1.353,46.9,79,60,7.83
371,Jacareacanga,BR,2022-10-16 01:43:17,-6.2222,-57.7528,73.96,98,93,0.6
372,Soskovo,RU,2022-10-16 01:43:17,52.7475,35.3828,35.46,83,0,6.58
373,Lashio,MM,2022-10-16 01:43:18,22.9333,97.75,70.72,90,28,0.54
374,Coolum Beach,AU,2022-10-16 01:42:46,-26.5333,153.1,75.11,72,63,7.54
375,Pacific Grove,US,2022-10-16 01:43:18,36.6177,-121.9166,62.71,83,100,8.05
376,Tignere,CM,2022-10-16 01:43:18,7.3667,12.65,63.07,91,98,1.74
377,Rodeo,US,2022-10-16 01:43:19,38.033,-122.2669,64.53,84,75,13.8
378,Coahuayana,MX,2022-10-16 01:43:19,18.7333,-103.6833,78.69,89,43,0.58
379,Alofi,NU,2022-10-16 01:43:19,-19.0595,-169.9187,84.09,65,2,11.5
380,Kavaratti,IN,2022-10-16 01:43:20,10.5669,72.642,81.55,71,100,4.56
381,Anadyr,RU,2022-10-16 01:43:20,64.75,177.4833,27.1,79,75,13.42
382,Solnechnyy,RU,2022-10-16 01:43:20,50.7214,136.6319,43.66,76,93,3.36
383,Batagay-Alyta,RU,2022-10-16 01:43:20,67.8006,130.4114,21.52,78,100,3.89
384,Nigde,TR,2022-10-16 01:43:21,37.8333,34.75,48.79,77,40,4.21
385,Wynyard,AU,2022-10-16 01:43:21,-41.0,145.7167,53.98,55,97,6.67
386,Kalanaur,IN,2022-10-16 01:43:22,28.8333,76.4,73.51,52,0,3.65
387,Zambezi,ZM,2022-10-16 01:43:22,-13.5432,23.1047,59.29,32,29,5.86
388,Fairbanks,US,2022-10-16 01:40:02,64.8378,-147.7164,33.76,76,100,6.91
389,Cockburn Town,TC,2022-10-16 01:43:23,21.4612,-71.1419,82.0,74,91,10.76
390,Winnemucca,US,2022-10-16 01:39:41,40.973,-117.7357,73.45,10,0,6.91
391,Constitucion,CL,2022-10-16 01:40:57,-35.3333,-72.4167,55.31,72,50,8.28
392,Osakarovka,KZ,2022-10-16 01:43:23,50.565,72.5692,46.42,50,100,5.57
393,Lady Frere,ZA,2022-10-16 01:43:24,-31.7031,27.2329,57.43,87,100,3.31
394,Sao Jose Da Coroa Grande,BR,2022-10-16 01:43:24,-8.8978,-35.1478,74.82,82,7,8.59
395,Ascension,US,2022-10-16 01:43:25,30.2169,-90.9001,75.09,81,0,0.0
396,Steamboat Springs,US,2022-10-16 01:40:29,40.485,-106.8317,55.96,39,40,8.05
397,Taitung,TW,2022-10-16 01:43:25,22.7583,121.1444,80.87,94,75,6.91
398,Canon City,US,2022-10-16 01:43:25,38.441,-105.2424,62.58,29,0,11.5
399,Lake City,US,2022-10-16 01:43:26,30.1897,-82.6393,68.86,68,0,4.61
400,Kedrovyy,RU,2022-10-16 01:43:26,56.1667,91.8167,23.41,58,33,3.42
401,Labuhan,ID,2022-10-16 01:43:26,-6.8844,112.2051,84.0,69,100,4.81
402,Bandar-E Lengeh,IR,2022-10-16 01:43:27,26.5579,54.8807,82.6,42,6,2.98
403,Slave Lake,CA,2022-10-16 01:43:27,55.2834,-114.769,39.18,60,100,11.5
404,Tessalit,ML,2022-10-16 01:43:27,20.1986,1.0114,79.59,14,0,10.29
405,Shu,KZ,2022-10-16 01:43:28,43.5983,73.7614,55.54,30,84,1.07
406,Naryan-Mar,RU,2022-10-16 01:43:28,67.6713,53.087,40.75,92,100,7.49
407,Kismayo,SO,2022-10-16 01:43:28,-0.3582,42.5454,76.46,84,34,10.47
408,Gawler,AU,2022-10-16 01:38:45,-34.6,138.7333,70.21,51,0,3.96
409,Harper,LR,2022-10-16 01:43:28,4.375,-7.7169,77.14,84,100,7.16
410,Lorengau,PG,2022-10-16 01:43:29,-2.0226,147.2712,85.24,70,42,10.11
411,Chichester,GB,2022-10-16 01:43:29,50.8367,-0.78,59.61,80,26,5.99
412,Catalina Foothills,US,2022-10-16 01:43:29,32.2979,-110.9187,77.29,66,0,3.0
413,Veseloyarsk,RU,2022-10-16 01:43:30,51.2836,81.1056,49.28,34,100,7.96
414,College,US,2022-10-16 01:38:53,64.8569,-147.8028,33.75,76,100,6.91
415,Aksay,RU,2022-10-16 01:43:30,47.26,39.87,41.25,59,7,11.01
416,Marsa Matruh,EG,2022-10-16 01:43:30,31.3525,27.2453,68.2,73,0,14.97
417,Syracuse,IT,2022-10-16 01:39:56,37.0881,15.2792,62.19,69,0,2.89
418,Calama,CL,2022-10-16 01:43:30,-22.4667,-68.9333,57.69,6,0,2.3
419,Agadez,NE,2022-10-16 01:44:31,19.75,10.25,76.15,23,0,9.55
420,Vao,NC,2022-10-16 01:44:31,-22.6667,167.4833,69.22,60,5,6.22
421,Podgornoye,RU,2022-10-16 01:44:31,51.735,39.1496,43.02,70,0,0.0
422,Karhal,IN,2022-10-16 01:44:31,27.0003,78.9414,75.24,61,0,2.51
423,Port Blair,IN,2022-10-16 01:44:32,11.6667,92.75,78.84,89,75,1.14
424,Floro,NO,2022-10-16 01:44:32,61.5996,5.0328,49.96,81,100,16.11
425,Acapulco,MX,2022-10-16 01:39:38,16.8634,-99.8901,84.02,74,40,3.44
426,Tautira,PF,2022-10-16 01:44:32,-17.7333,-149.15,76.66,75,50,13.73
427,Mount Vernon,US,2022-10-16 01:44:33,40.9126,-73.8371,63.63,69,0,10.36
428,Ancud,CL,2022-10-16 01:44:33,-41.8697,-73.8203,46.67,94,97,2.08
429,Krasnovishersk,RU,2022-10-16 01:44:33,60.4078,57.082,36.39,91,100,3.53
430,Ferrol,ES,2022-10-16 01:44:33,43.4832,-8.2369,61.23,98,99,6.51
431,Zemio,CF,2022-10-16 01:44:34,5.0314,25.1361,68.0,92,100,0.31
432,Genhe,CN,2022-10-16 01:44:34,50.7833,121.5167,33.58,61,100,9.89
433,Klyuchi,RU,2022-10-16 01:44:34,52.2667,79.1667,49.14,35,99,6.51
434,Kerema,PG,2022-10-16 01:44:34,-7.9631,145.7785,85.57,73,91,9.6
435,Bako,ET,2022-10-16 01:44:35,5.7833,36.5667,61.61,85,62,3.38
436,Malanje,AO,2022-10-16 01:44:35,-9.5402,16.341,64.58,87,100,7.54
437,Susanville,US,2022-10-16 01:44:35,40.4163,-120.653,66.13,23,0,4.61
438,Ayagoz,KZ,2022-10-16 01:44:36,47.9714,80.4392,48.9,26,100,3.78
439,Atar,MR,2022-10-16 01:44:36,20.5169,-13.0499,86.49,30,9,3.58
440,Kelvington,CA,2022-10-16 01:44:36,52.1667,-103.5343,33.57,44,82,13.06
441,Shanghai,CN,2022-10-16 01:43:53,31.2222,121.4581,71.92,81,40,4.47
442,Bilma,NE,2022-10-16 01:44:36,18.6853,12.9164,76.55,19,0,0.89
443,Prenzlau,DE,2022-10-16 01:44:37,53.3167,13.8667,60.71,96,100,10.22
444,Ararangua,BR,2022-10-16 01:44:37,-28.9347,-49.4858,61.95,95,100,5.48
445,Berezovka,BY,2022-10-16 01:44:37,53.7214,25.4993,50.29,82,99,10.31
446,Qaqortoq,GL,2022-10-16 01:44:37,60.7167,-46.0333,34.92,71,0,9.93
447,Pangkalanbuun,ID,2022-10-16 01:44:38,-2.6833,111.6167,84.92,67,100,3.04
448,Palamos,ES,2022-10-16 01:44:38,41.8484,3.1291,70.0,61,93,9.55
449,Mogadishu,SO,2022-10-16 01:44:38,2.0371,45.3438,76.84,83,59,8.7
450,Yakeshi,CN,2022-10-16 01:44:39,49.2833,120.7333,33.75,65,100,15.64
451,Iskateley,RU,2022-10-16 01:44:39,67.6803,53.1512,40.68,92,100,7.54
452,Mporokoso,ZM,2022-10-16 01:44:39,-9.3727,30.125,65.19,26,43,7.58
453,San Javier,ES,2022-10-16 01:44:39,37.8063,-0.8374,68.13,95,0,4.61
454,Bengkulu,ID,2022-10-16 01:44:40,-3.8004,102.2655,80.42,73,81,1.81
455,Mayumba,GA,2022-10-16 01:44:40,-3.432,10.6554,75.88,88,96,5.39
456,Kununurra,AU,2022-10-16 01:44:40,-15.7667,128.7333,96.78,41,40,8.05
457,Manaira,BR,2022-10-16 01:44:41,-7.7061,-38.1544,68.41,73,3,12.03
458,Salinas,US,2022-10-16 01:44:41,36.6777,-121.6555,63.75,70,100,8.05
459,Sobolevo,RU,2022-10-16 01:44:41,54.4299,31.8996,37.76,86,11,9.33
460,Ust-Ishim,RU,2022-10-16 01:44:41,57.6935,71.1665,42.93,90,99,3.87
461,Huatulco,MX,2022-10-16 01:44:42,15.8436,-96.3267,77.86,86,92,3.04
462,Goundam,ML,2022-10-16 01:44:42,16.4145,-3.6708,89.24,29,11,4.56
463,Mlonggo,ID,2022-10-16 01:44:42,-6.5333,110.7,84.78,68,70,3.94
464,Guasdualito,VE,2022-10-16 01:44:42,7.2424,-70.7324,78.8,94,0,3.44
465,Douglas,US,2022-10-16 01:45:41,41.3,-96.167,63.59,57,0,8.05
466,Saldanha,ZA,2022-10-16 01:45:43,-33.0117,17.9442,60.46,88,33,6.53
467,Nantucket,US,2022-10-16 01:42:16,41.2835,-70.0995,56.14,97,0,3.44
468,Ashland,US,2022-10-16 01:45:43,40.8167,-82.2665,42.98,80,35,4.76
469,Bairiki,KI,2022-10-16 01:45:44,1.3292,172.9752,86.0,74,20,12.66
470,Ixtapa,MX,2022-10-16 01:45:44,20.7,-105.2,83.43,79,100,2.3
471,Ambilobe,MG,2022-10-16 01:45:44,-13.2,49.05,68.41,74,29,4.68
472,La Estancia,MX,2022-10-16 01:45:44,20.4167,-100.0667,71.02,57,17,5.82
473,Puerto Carreno,CO,2022-10-16 01:45:45,6.189,-67.4859,79.68,82,93,2.62
474,Fukue,JP,2022-10-16 01:45:45,32.6881,128.8419,73.76,83,75,4.61
475,Hambantota,LK,2022-10-16 01:45:45,6.1241,81.1185,75.54,100,20,3.44
476,Rampura,IN,2022-10-16 01:45:46,30.25,75.2333,70.52,49,0,2.82
477,Vardo,NO,2022-10-16 01:45:46,70.3705,31.1107,46.38,87,100,17.27
478,Toora-Khem,RU,2022-10-16 01:45:46,52.4675,96.11,27.39,51,5,2.64
479,Mirnyy,RU,2022-10-16 01:42:56,62.5353,113.9611,28.24,100,100,15.99
480,Sinegorye,RU,2022-10-16 01:45:47,62.0788,150.477,11.01,90,38,1.61
481,Grindavik,IS,2022-10-16 01:45:47,63.8424,-22.4338,37.87,75,75,33.38
482,Port-Gentil,GA,2022-10-16 01:45:47,-0.7193,8.7815,77.36,81,100,3.22
483,Maues,BR,2022-10-16 01:45:48,-3.3836,-57.7186,74.34,95,88,2.59
484,Pangnirtung,CA,2022-10-16 01:45:48,66.1451,-65.7125,36.99,94,100,2.15
485,Synya,RU,2022-10-16 01:45:48,65.3718,58.0387,34.38,91,99,3.38
486,Tshikapa,CD,2022-10-16 01:45:48,-6.4167,20.8,69.33,97,100,3.36
487,Yarkovo,RU,2022-10-16 01:45:49,57.4028,67.0786,42.51,88,98,4.54
488,Mehamn,NO,2022-10-16 01:45:49,71.0357,27.8492,44.51,93,100,2.3
489,Chino Valley,US,2022-10-16 01:45:50,34.7575,-112.4538,56.17,89,75,4.61
490,Totness,SR,2022-10-16 01:45:50,5.8833,-56.3167,79.47,85,44,9.86
491,Batagay,RU,2022-10-16 01:45:50,67.6333,134.6333,13.06,84,100,4.29
492,Ilebo,CD,2022-10-16 01:45:51,-4.3167,20.5833,71.04,99,100,1.95
493,Port Hedland,AU,2022-10-16 01:44:38,-20.3167,118.5667,89.65,19,20,10.36
494,Bilibino,RU,2022-10-16 01:45:51,68.0546,166.4372,0.72,97,95,0.18
495,Broken Hill,AU,2022-10-16 01:45:51,-31.95,141.4333,69.69,35,30,2.89
496,Marang,MY,2022-10-16 01:45:51,5.2056,103.2059,83.97,74,80,2.77
497,Qui Nhon,VN,2022-10-16 01:45:52,13.7667,109.2333,80.29,81,23,8.57
498,Ponta Do Sol,PT,2022-10-16 01:45:52,32.6667,-17.1,70.72,75,39,3.85
499,Nhulunbuy,AU,2022-10-16 01:45:52,-12.2333,136.7667,92.01,55,40,13.8
500,Armidale,AU,2022-10-16 01:45:53,-30.5167,151.65,65.79,45,28,8.63
501,Mount Isa,AU,2022-10-16 01:45:53,-20.7333,139.5,92.97,29,40,11.5
502,Shimoda,JP,2022-10-16 01:45:53,34.6667,138.95,75.56,72,11,12.77
503,Bousse,BF,2022-10-16 01:45:53,12.6606,-1.8922,76.51,78,57,7.74
504,Ilo,PE,2022-10-16 01:45:54,-17.6394,-71.3375,60.78,81,0,4.59
505,Weligama,LK,2022-10-16 01:45:54,5.9667,80.4167,78.73,86,82,7.54
506,Malakal,SS,2022-10-16 01:45:54,9.5334,31.6605,74.39,79,100,1.45
507,Hilter,DE,2022-10-16 01:45:55,52.15,8.15,54.82,88,100,9.28
508,Kloulklubed,PW,2022-10-16 01:45:55,7.0419,134.2556,84.7,72,99,6.69
509,Andenes,NO,2022-10-16 01:45:55,69.3143,16.1194,46.92,81,100,8.05
510,Roald,NO,2022-10-16 01:45:55,62.5833,6.1333,50.92,66,75,8.05
511,Coquimbo,CL,2022-10-16 01:45:25,-29.9533,-71.3436,55.13,94,100,5.75
512,Nara,JP,2022-10-16 01:46:56,34.6851,135.8049,80.49,40,1,0.85
513,Oyon,PE,2022-10-16 01:46:56,-10.6681,-76.7731,46.38,86,100,2.89
514,Akdepe,TM,2022-10-16 01:46:56,42.0551,59.3788,55.49,47,74,9.69
515,Asyut,EG,2022-10-16 01:46:57,27.181,31.1837,71.78,44,0,7.78
516,Sorland,NO,2022-10-16 01:46:57,67.667,12.6934,46.26,74,100,18.12
517,Ugoofaaru,MV,2022-10-16 01:46:57,5.6667,73.0,81.18,80,93,18.25
518,Nampula,MZ,2022-10-16 01:46:57,-15.1165,39.2666,67.95,88,0,11.99
519,Kutum,SD,2022-10-16 01:46:58,14.2,24.6667,71.62,29,7,8.12
520,Kavieng,PG,2022-10-16 01:46:58,-2.5744,150.7967,84.13,71,79,10.25
521,Sandakan,MY,2022-10-16 01:46:58,5.8402,118.1179,83.88,79,20,5.99
522,Usinsk,RU,2022-10-16 01:46:58,65.9939,57.5281,35.82,97,100,7.65
523,Kruisfontein,ZA,2022-10-16 01:46:59,-34.0033,24.7314,59.81,87,100,7.27
524,Kamaishi,JP,2022-10-16 01:46:59,39.2667,141.8833,64.81,73,36,4.23
525,Lhokseumawe,ID,2022-10-16 01:46:59,5.1801,97.1507,80.28,80,100,2.46
526,Dawlatabad,AF,2022-10-16 01:46:59,36.4141,64.9053,61.77,20,0,0.72
527,Polunochnoye,RU,2022-10-16 01:47:00,60.8697,60.4153,39.7,93,100,6.91
528,Dicabisagan,PH,2022-10-16 01:47:00,17.0818,122.4157,84.38,68,100,3.11
529,Tahoua,NE,2022-10-16 01:47:00,14.8888,5.2692,80.71,23,6,3.89
530,Nyurba,RU,2022-10-16 01:47:00,63.2842,118.3319,31.37,91,98,7.31
531,Turukhansk,RU,2022-10-16 01:47:01,65.8167,87.9833,29.52,82,95,11.12
532,Vila Franca Do Campo,PT,2022-10-16 01:47:01,37.7167,-25.4333,66.61,78,6,8.9
533,Okhotsk,RU,2022-10-16 01:47:01,59.3833,143.3,31.1,43,38,10.29
534,Bereda,ES,2022-10-16 01:47:02,43.2686,-7.5406,56.28,92,100,5.06
535,Madinat Sittah Uktubar,EG,2022-10-16 01:47:02,29.8167,31.05,76.6,62,16,8.25
536,Chapais,CA,2022-10-16 01:47:02,49.7834,-74.8492,44.38,82,100,13.31
537,Ostrovnoy,RU,2022-10-16 01:47:02,68.0531,39.5131,42.3,92,100,14.54
538,Sorong,ID,2022-10-16 01:47:03,-0.8833,131.25,83.19,70,15,2.84
539,Riyadh,SA,2022-10-16 01:42:33,24.6877,46.7219,69.94,20,2,4.41
540,Laguna,US,2022-10-16 01:47:03,38.421,-121.4238,75.43,73,0,16.11
541,Hami,CN,2022-10-16 01:47:03,42.8,93.45,58.28,23,13,7.16
542,Shalya,RU,2022-10-16 01:47:04,57.2471,58.7298,40.48,89,99,5.93
543,San Patricio,US,2022-10-16 01:47:04,28.017,-97.5169,82.29,70,2,10.89
544,Richards Bay,ZA,2022-10-16 01:47:04,-28.783,32.0377,66.79,76,96,4.16
545,Quelimane,MZ,2022-10-16 01:47:04,-17.8786,36.8883,75.15,88,0,4.23
546,Chau Doc,VN,2022-10-16 01:47:05,10.7,105.1167,76.89,73,90,6.98
547,Pasni,PK,2022-10-16 01:44:26,25.2631,63.471,78.37,56,2,4.18
548,Abtenau,AT,2022-10-16 01:47:05,47.5637,13.346,55.04,92,47,4.27
549,Monrovia,LR,2022-10-16 01:47:05,6.3005,-10.7969,74.97,88,100,7.02
550,Oxbow,CA,2022-10-16 01:47:06,49.2333,-102.1676,36.64,63,15,13.69
551,Ahipara,NZ,2022-10-16 01:47:06,-35.1667,173.1667,61.97,59,29,8.9
552,Ponta Delgada,PT,2022-10-16 01:46:25,37.7333,-25.6667,66.92,68,20,9.22
553,Esmeraldas,BR,2022-10-16 01:47:06,-19.7625,-44.3139,72.64,60,99,7.61
554,Diego De Almagro,CL,2022-10-16 01:45:53,-26.3667,-70.05,61.36,36,0,1.61
555,Shingu,JP,2022-10-16 01:47:07,33.7333,135.9833,73.09,82,67,7.07
556,Alice Springs,AU,2022-10-16 01:47:07,-23.7,133.8833,88.21,40,0,12.66
557,Lagos,NG,2022-10-16 01:45:04,6.5833,3.75,77.32,94,100,1.83
558,Wloclawek,PL,2022-10-16 01:47:07,52.6482,19.0678,54.52,96,11,7.9
559,Port Hardy,CA,2022-10-16 01:45:41,50.6996,-127.4199,57.38,88,0,0.0
560,Uglovskoye,RU,2022-10-16 01:48:08,51.3557,80.1942,49.71,34,92,8.12
561,Povenets,RU,2022-10-16 01:48:08,62.8487,34.8262,46.2,93,100,10.31
562,Jacqueville,CI,2022-10-16 01:48:08,5.2052,-4.4146,76.89,86,82,8.68
563,Kaeo,NZ,2022-10-16 01:48:09,-35.1,173.7833,65.93,51,5,8.88
564,Haimen,CN,2022-10-16 01:48:09,23.1935,116.6142,80.49,59,100,10.29
565,Bara,NG,2022-10-16 01:48:09,10.3744,10.7288,71.69,86,10,5.64
566,Isangel,VU,2022-10-16 01:48:09,-19.55,169.2667,80.71,69,75,6.91
567,Katra,IN,2022-10-16 01:48:10,32.9833,74.95,65.57,80,0,7.16
568,Nurota,UZ,2022-10-16 01:48:10,40.5614,65.6886,56.12,35,8,3.98
569,Birjand,IR,2022-10-16 01:48:10,32.8663,59.2211,46.87,19,0,9.22
570,Caxito,AO,2022-10-16 01:48:11,-8.5785,13.6643,73.78,86,98,1.25
571,Kalabo,ZM,2022-10-16 01:48:11,-14.97,22.6814,63.39,23,19,4.79
572,Sabha,LY,2022-10-16 01:48:11,27.0377,14.4283,68.61,55,28,9.24
573,Mezen,RU,2022-10-16 01:48:12,65.8522,44.24,42.49,95,100,5.86
574,Valparaiso,CL,2022-10-16 01:48:12,-33.0393,-71.6273,55.04,87,100,5.75
575,Angoche,MZ,2022-10-16 01:48:12,-16.2325,39.9086,69.15,86,0,5.73
576,Hervey Bay,AU,2022-10-16 01:48:12,-25.2986,152.8535,72.64,62,52,8.19
577,Dong Hoi,VN,2022-10-16 01:48:13,17.4833,106.6,79.48,77,100,16.49
578,Xai-Xai,MZ,2022-10-16 01:48:13,-25.0519,33.6442,72.54,87,100,12.28
579,Namuac,PH,2022-10-16 01:48:14,18.6109,121.1657,77.22,92,100,14.03
580,Suchitoto,SV,2022-10-16 01:48:14,13.9381,-89.0278,75.74,97,100,1.72
581,Bubaque,GW,2022-10-16 01:48:14,11.2833,-15.8333,82.31,73,81,8.05
582,Sines,PT,2022-10-16 01:48:14,37.9562,-8.8698,60.3,91,1,1.99
583,Florence,IT,2022-10-16 01:48:15,43.7667,11.25,66.24,96,40,1.14
584,Tjome,NO,2022-10-16 01:48:15,59.1109,10.3933,48.43,100,41,3.44
585,Bathsheba,BB,2022-10-16 01:48:15,13.2167,-59.5167,81.21,83,20,14.97
586,Kabare,CD,2022-10-16 01:48:16,-2.4683,28.8242,64.65,77,100,2.19
