City ID,City,Country,Date,Lat,Lng,Max Temp,Humidity,Cloudiness,Wind Speed
0,Lang Suan,TH,2022-09-10 03:31:38,9.9456,99.0785,83.1,75,100,4.14
1,Ponta Do Sol,PT,2022-09-10 03:31:38,32.6667,-17.1,75.7,78,17,1.3
2,Arraial Do Cabo,BR,2022-09-10 03:31:38,-22.9661,-42.0278,69.64,86,0,28.34
3,Qaanaaq,GL,2022-09-10 03:26:55,77.484,-69.3632,30.16,57,16,7.52
4,Tuktoyaktuk,CA,2022-09-10 03:26:41,69.4541,-133.0374,46.4,81,100,19.57
5,Barrow,US,2022-09-10 03:31:39,71.2906,-156.7887,35.62,93,100,20.71
6,Yenagoa,NG,2022-09-10 03:31:39,4.9247,6.2642,73.47,96,89,3.62
7,Kapaa,US,2022-09-10 03:24:06,22.0752,-159.319,82.72,74,75,14.97
8,Port Elizabeth,ZA,2022-09-10 03:31:39,-33.918,25.5701,60.1,100,20,2.3
9,Nageshwari,BD,2022-09-10 03:31:40,25.9377,89.7148,87.44,69,14,7.65
10,Marsaxlokk,MT,2022-09-10 03:31:40,35.8419,14.5431,81.09,94,20,4.61
11,Muros,ES,2022-09-10 03:31:40,42.7762,-9.0603,65.16,94,13,4.0
12,Bathsheba,BB,2022-09-10 03:31:40,13.2167,-59.5167,83.01,78,75,11.5
13,Slave Lake,CA,2022-09-10 03:31:41,55.2834,-114.769,53.58,76,100,5.75
14,Hermanus,ZA,2022-09-10 03:22:50,-34.4187,19.2345,47.8,75,85,1.92
15,Itamaraju,BR,2022-09-10 03:31:41,-17.0392,-39.5311,60.69,92,0,3.11
16,Albany,US,2022-09-10 03:24:49,42.6001,-73.9662,63.45,89,0,2.93
17,Gamba,GA,2022-09-10 03:31:41,-2.65,10.0,73.44,90,98,5.7
18,Jamestown,US,2022-09-10 03:27:38,42.097,-79.2353,69.71,61,0,5.75
19,Port Hardy,CA,2022-09-10 03:31:06,50.6996,-127.4199,53.78,94,0,6.91
20,Mangrol,IN,2022-09-10 03:31:42,21.1167,70.1167,82.89,83,100,4.18
21,Torres,BR,2022-09-10 03:31:42,-29.3353,-49.7269,61.83,85,86,20.13
22,Eston,CA,2022-09-10 03:31:42,51.1501,-108.7514,53.58,35,28,7.4
23,Palmer,US,2022-09-10 03:31:42,42.1584,-72.3287,64.9,84,0,0.0
24,Port Alfred,ZA,2022-09-10 03:30:06,-33.5906,26.891,58.17,97,4,1.01
25,Punta Arenas,CL,2022-09-10 03:31:43,-53.15,-70.9167,41.11,87,40,34.52
26,Mataura,NZ,2022-09-10 03:24:51,-46.1927,168.8643,56.48,56,3,0.87
27,Takoradi,GH,2022-09-10 03:31:43,4.8845,-1.7554,73.96,92,87,8.57
28,Ribeira Grande,PT,2022-09-10 03:31:44,38.5167,-28.7,73.44,73,8,21.77
29,Victoria,HK,2022-09-10 03:28:59,22.2855,114.1577,89.96,72,76,8.01
30,Saint Anthony,US,2022-09-10 03:31:44,45.0205,-93.218,60.73,94,0,8.05
31,Sioux Lookout,CA,2022-09-10 03:31:44,50.1001,-91.917,51.87,82,75,3.44
32,Buala,SB,2022-09-10 03:31:44,-8.145,159.5921,83.14,70,67,8.79
33,Bluff,NZ,2022-09-10 03:22:53,-46.6,168.3333,56.8,70,0,3.62
34,Cap-Aux-Meules,CA,2022-09-10 03:31:45,47.3821,-61.8597,60.82,72,4,8.05
35,Saint-Philippe,RE,2022-09-10 03:31:45,-21.3585,55.7679,69.39,69,41,11.72
36,Busselton,AU,2022-09-10 03:31:04,-33.65,115.3333,61.5,61,35,4.47
37,Mar Del Plata,AR,2022-09-10 03:30:00,-38.0023,-57.5575,44.94,75,40,11.99
38,Hambantota,LK,2022-09-10 03:31:45,6.1241,81.1185,86.34,74,20,13.8
39,Salta,AR,2022-09-10 03:30:35,-24.7859,-65.4117,48.79,40,0,9.22
40,Vaini,TO,2022-09-10 03:24:49,-21.2,-175.2,78.96,83,75,6.91
41,Tuatapere,NZ,2022-09-10 03:31:46,-46.1333,167.6833,53.15,63,2,2.48
42,Verkhnevilyuysk,RU,2022-09-10 03:32:46,63.4453,120.3167,41.13,64,87,13.71
43,Capinzal,BR,2022-09-10 03:32:46,-27.3436,-51.6119,62.55,99,97,4.38
44,Lagoa,PT,2022-09-10 03:32:47,39.05,-27.9833,72.48,76,10,27.0
45,Puerto Ayora,EC,2022-09-10 03:32:47,-0.7393,-90.3518,67.55,88,95,10.0
46,Souillac,MU,2022-09-10 03:24:47,-20.5167,57.5167,70.18,73,75,12.66
47,Rikitea,PF,2022-09-10 03:32:47,-23.1203,-134.9692,71.8,74,14,18.9
48,Cherskiy,RU,2022-09-10 03:32:48,68.75,161.3,52.09,73,100,11.92
49,Mahebourg,MU,2022-09-10 03:24:47,-20.4081,57.7,70.09,73,75,12.66
50,New Norfolk,AU,2022-09-10 03:29:59,-42.7826,147.0587,55.92,90,100,1.01
51,Luderitz,NA,2022-09-10 03:32:48,-26.6481,15.1594,60.58,62,0,13.96
52,Faanui,PF,2022-09-10 03:32:48,-16.4833,-151.75,79.02,72,6,21.81
53,Cape Town,ZA,2022-09-10 03:25:55,-33.9258,18.4232,55.11,84,0,2.3
54,Kavieng,PG,2022-09-10 03:32:48,-2.5744,150.7967,83.62,72,100,10.42
55,Castro,BR,2022-09-10 03:31:46,-24.7911,-50.0119,70.54,59,95,6.91
56,Lompoc,US,2022-09-10 03:32:49,34.6391,-120.4579,82.69,70,0,4.61
57,Bredasdorp,ZA,2022-09-10 03:22:49,-34.5322,20.0403,47.59,83,67,3.98
58,Alofi,NU,2022-09-10 03:32:49,-19.0595,-169.9187,76.08,72,36,20.13
59,Yulara,AU,2022-09-10 03:32:49,-25.2406,130.9889,66.4,39,100,17.31
60,Pathein,MM,2022-09-10 03:32:50,16.7833,94.7333,81.97,78,96,8.84
61,Ushuaia,AR,2022-09-10 03:21:37,-54.8,-68.3,40.66,87,40,4.61
62,Guerrero Negro,MX,2022-09-10 03:32:50,27.9769,-114.0611,77.22,75,7,11.03
63,Miri,MY,2022-09-10 03:32:50,4.4148,114.0089,82.54,74,40,9.22
64,Caravelas,BR,2022-09-10 03:32:50,-17.7125,-39.2481,67.51,76,0,5.82
65,Cidreira,BR,2022-09-10 03:32:51,-30.1811,-50.2056,54.12,85,100,17.83
66,Ziro,IN,2022-09-10 03:32:51,27.6333,93.8333,61.54,47,66,1.34
67,Hovd,MN,2022-09-10 03:32:14,48.0056,91.6419,63.3,40,100,5.12
68,Fairbanks,US,2022-09-10 03:31:44,64.8378,-147.7164,55.36,71,75,6.91
69,Evans,US,2022-09-10 03:31:10,33.5337,-82.1307,70.32,94,100,13.8
70,Kayerkan,RU,2022-09-10 03:32:51,69.3497,87.7602,35.02,98,100,7.94
71,Dikson,RU,2022-09-10 03:32:52,73.5069,80.5464,37.26,73,92,4.18
72,Zaraza,VE,2022-09-10 03:32:52,9.3503,-65.3245,77.31,80,92,3.58
73,Saint-Michel-Des-Saints,CA,2022-09-10 03:32:52,46.6834,-73.9159,60.94,90,0,2.93
74,Khatanga,RU,2022-09-10 03:32:53,71.9667,102.5,36.39,81,100,10.33
75,Tasiilaq,GL,2022-09-10 03:30:45,65.6145,-37.6368,42.96,66,5,5.75
76,Sitka,US,2022-09-10 03:32:53,57.0531,-135.33,55.29,88,100,3.44
77,Hobart,AU,2022-09-10 03:21:58,-42.8794,147.3294,56.26,95,100,12.66
78,Nikolskoye,RU,2022-09-10 03:32:53,59.7035,30.7861,39.09,90,10,4.12
79,Pisco,PE,2022-09-10 03:32:53,-13.7,-76.2167,59.05,82,6,2.3
80,Puerto Narino,CO,2022-09-10 03:32:54,-3.7703,-70.3831,73.31,95,50,1.9
81,Labuhan,ID,2022-09-10 03:32:54,-6.8844,112.2051,86.54,57,92,1.61
82,Khorixas,NA,2022-09-10 03:32:54,-20.3667,14.9667,66.69,15,0,3.49
83,Atherton,GB,2022-09-10 03:32:54,53.5237,-2.4935,60.42,88,95,1.01
84,Puerto Gaitan,CO,2022-09-10 03:32:55,4.3133,-72.0816,74.86,84,47,3.27
85,Lucea,JM,2022-09-10 03:32:55,18.451,-78.1736,80.46,76,17,3.4
86,Koslan,RU,2022-09-10 03:33:55,63.4564,48.8989,44.85,96,100,5.95
87,Alugan,PH,2022-09-10 03:33:56,12.2188,125.4808,83.88,74,100,6.02
88,Carnarvon,AU,2022-09-10 03:24:52,-24.8667,113.6333,68.65,53,0,13.65
89,Longyearbyen,SJ,2022-09-10 03:33:56,78.2186,15.6401,35.44,93,100,17.27
90,Kodiak,US,2022-09-10 03:33:20,57.79,-152.4072,58.51,44,20,10.36
91,Le Port,RE,2022-09-10 03:33:56,-20.9373,55.2919,74.89,71,32,6.24
92,Upernavik,GL,2022-09-10 03:33:57,72.7868,-56.1549,42.44,92,100,1.52
93,Karratha,AU,2022-09-10 03:33:57,-20.7377,116.8463,78.91,33,0,10.92
94,Trelew,AR,2022-09-10 03:33:27,-43.249,-65.3051,50.54,50,0,9.46
95,Riyadh,SA,2022-09-10 03:29:03,24.6877,46.7219,82.54,21,9,1.28
96,Jaguey Grande,CU,2022-09-10 03:33:57,22.5269,-81.1286,75.43,93,100,3.85
97,Faya,SA,2022-09-10 03:24:48,18.3851,42.4509,64.92,32,96,3.87
98,Nsanje,MW,2022-09-10 03:33:57,-16.92,35.262,66.69,89,0,2.55
99,Tual,ID,2022-09-10 03:33:21,-5.6667,132.75,80.96,81,80,17.43
100,Chuy,UY,2022-09-10 03:33:58,-33.6971,-53.4616,47.79,61,100,12.44
101,Provideniya,RU,2022-09-10 03:33:58,64.3833,-173.3,50.18,64,10,9.13
102,Xichang,CN,2022-09-10 03:31:11,27.8964,102.2634,61.14,94,100,1.23
103,Kirkuk,IQ,2022-09-10 03:33:58,35.4681,44.3922,88.36,14,0,5.55
104,San Patricio,US,2022-09-10 03:33:59,28.017,-97.5169,82.89,70,1,7.67
105,Koungheul,SN,2022-09-10 03:33:59,13.9833,-14.8,74.48,94,96,8.19
106,Saldanha,ZA,2022-09-10 03:31:31,-33.0117,17.9442,55.87,93,43,9.19
107,Ancud,CL,2022-09-10 03:24:54,-41.8697,-73.8203,44.26,93,29,3.96
108,Alice Springs,AU,2022-09-10 03:33:59,-23.7,133.8833,65.75,39,100,12.66
109,Yellowknife,CA,2022-09-10 03:34:00,62.456,-114.3525,45.12,81,75,5.75
110,Chokurdakh,RU,2022-09-10 03:34:00,70.6333,147.9167,41.29,87,100,10.29
111,Caucaia,BR,2022-09-10 03:34:00,-3.7361,-38.6531,79.03,78,40,13.8
112,Melfi,IT,2022-09-10 03:34:00,40.9965,15.6514,65.5,86,6,6.64
113,Moose Factory,CA,2022-09-10 03:34:01,51.2585,-80.6094,51.8,100,100,3.44
114,East London,ZA,2022-09-10 03:34:01,-33.0153,27.9116,56.34,100,40,3.44
115,La Asuncion,VE,2022-09-10 03:34:01,11.0333,-63.8628,83.93,84,57,13.8
116,Mehamn,NO,2022-09-10 03:34:02,71.0357,27.8492,48.15,87,75,14.97
117,Hanzhong,CN,2022-09-10 03:34:02,33.0728,107.0303,77.58,64,8,1.95
118,Avarua,CK,2022-09-10 03:24:52,-21.2078,-159.775,77.05,83,40,16.11
119,Dunedin,NZ,2022-09-10 03:30:04,-45.8742,170.5036,50.81,77,14,1.99
120,Sarany,RU,2022-09-10 03:34:02,58.5,58.8833,38.26,76,89,5.68
121,Lasa,IT,2022-09-10 03:32:04,46.6166,10.7002,54.48,89,12,2.71
122,Kanigoro,ID,2022-09-10 03:34:03,-8.13,112.219,85.53,63,60,6.13
123,Dukat,RU,2022-09-10 03:29:20,62.55,155.55,40.44,96,100,3.13
124,Maniitsoq,GL,2022-09-10 03:34:03,65.4167,-52.9,43.12,82,68,7.9
125,Thompson,CA,2022-09-10 03:31:36,55.7435,-97.8558,48.36,87,75,8.05
126,Killybegs,IE,2022-09-10 03:34:05,54.6333,-8.45,54.7,84,0,6.4
127,Hithadhoo,MV,2022-09-10 03:21:17,-0.6,73.0833,81.86,72,99,11.77
128,Albion,US,2022-09-10 03:29:53,42.2431,-84.753,69.75,84,40,3.44
129,Sao Sebastiao,BR,2022-09-10 03:35:06,-23.76,-45.4097,80.83,43,93,4.65
130,Butaritari,KI,2022-09-10 03:35:06,3.0707,172.7902,82.24,68,100,14.14
131,Esperance,AU,2022-09-10 03:35:06,-33.8667,121.9,63.14,58,8,4.07
132,Belmonte,BR,2022-09-10 03:35:07,-15.8631,-38.8828,68.88,76,0,5.97
133,Terney,RU,2022-09-10 03:35:07,45.0503,136.6092,68.76,48,0,5.93
134,Mount Gambier,AU,2022-09-10 03:31:50,-37.8333,140.7667,53.91,63,56,10.49
135,Marquard,ZA,2022-09-10 03:35:07,-28.6645,27.4305,50.47,23,0,3.85
136,Nueve De Julio,AR,2022-09-10 03:35:08,-35.4444,-60.8831,38.97,71,0,0.63
137,Inta,RU,2022-09-10 03:35:08,66.0317,60.1659,40.75,87,100,6.82
138,Namibe,AO,2022-09-10 03:35:08,-15.1961,12.1522,65.3,89,84,2.89
139,Naze,JP,2022-09-10 03:35:09,28.3667,129.4833,86.92,78,100,12.59
140,Broken Hill,AU,2022-09-10 03:35:09,-31.95,141.4333,61.45,45,20,13.29
141,Tromso,NO,2022-09-10 03:35:09,69.6496,18.957,48.22,87,75,4.61
142,Narsaq,GL,2022-09-10 03:30:41,60.9167,-46.05,46.62,62,100,4.43
143,Saint George,US,2022-09-10 03:29:56,37.1041,-113.5841,90.63,34,0,12.66
144,De-Kastri,RU,2022-09-10 03:35:10,51.4667,140.7833,71.4,50,21,4.34
145,Maldonado,UY,2022-09-10 03:30:26,-34.6667,-54.9167,49.23,64,79,16.13
146,Uvalde,US,2022-09-10 03:35:10,29.3669,-99.767,77.32,45,0,0.0
147,Kaitangata,NZ,2022-09-10 03:32:25,-46.2817,169.8464,51.12,71,2,4.94
148,Saint-Louis,SN,2022-09-10 03:35:10,16.3333,-15.0,74.61,73,100,11.18
149,Hit,IQ,2022-09-10 03:35:11,33.6416,42.8251,89.78,20,0,5.61
150,Pochutla,MX,2022-09-10 03:35:11,15.7432,-96.4661,76.82,91,82,1.63
151,Nuevo Progreso,MX,2022-09-10 03:35:12,23.1667,-97.95,79.54,74,65,2.64
152,Puerto Del Rosario,ES,2022-09-10 03:35:12,28.5004,-13.8627,73.15,83,100,13.8
153,Klaksvik,FO,2022-09-10 03:35:12,62.2266,-6.589,47.32,85,12,8.46
154,Jalu,LY,2022-09-10 03:35:12,29.0331,21.5482,75.69,39,0,5.59
155,Camacari,BR,2022-09-10 03:30:31,-12.6975,-38.3242,76.77,82,2,3.76
156,Egvekinot,RU,2022-09-10 03:35:13,66.3167,-179.1667,41.76,66,1,2.62
157,Bengkulu,ID,2022-09-10 03:35:13,-3.8004,102.2655,75.16,88,100,2.89
158,Aksu,CN,2022-09-10 03:35:14,41.1231,80.2644,86.47,14,8,3.62
159,Darhan,MN,2022-09-10 03:35:14,49.4867,105.9228,58.05,59,100,16.78
160,Kiruna,SE,2022-09-10 03:35:14,67.8557,20.2251,34.72,93,24,4.61
161,Khasan,RU,2022-09-10 03:35:14,42.4308,130.6434,68.18,67,22,8.41
162,Uyuni,BO,2022-09-10 03:35:15,-20.4597,-66.825,43.45,27,8,8.19
163,Flin Flon,CA,2022-09-10 03:35:15,54.7682,-101.865,47.01,66,100,8.41
164,Brest,BY,2022-09-10 03:35:15,52.1,23.7,51.3,93,100,8.55
165,Hilo,US,2022-09-10 03:35:16,19.7297,-155.09,82.13,76,0,9.22
166,Solhan,TR,2022-09-10 03:35:16,38.9634,41.0293,63.32,26,0,1.54
167,Trairi,BR,2022-09-10 03:35:16,-3.2778,-39.2689,76.86,82,5,12.15
168,Codrington,AU,2022-09-10 03:35:16,-38.2667,141.9667,53.22,65,82,17.52
169,La Crosse,US,2022-09-10 03:35:17,43.8014,-91.2396,68.56,89,100,4.0
170,Portland,US,2022-09-10 03:32:20,45.5234,-122.6762,82.35,20,0,21.85
171,Tiksi,RU,2022-09-10 03:32:41,71.6872,128.8694,38.77,97,100,9.6
172,Sao Jose Da Coroa Grande,BR,2022-09-10 03:35:17,-8.8978,-35.1478,72.09,88,54,3.2
173,Zvishavane,ZW,2022-09-10 03:35:18,-20.3267,30.0665,55.33,54,0,2.64
174,Inhambane,MZ,2022-09-10 03:35:18,-23.865,35.3833,64.76,86,0,5.12
175,Antofagasta,CL,2022-09-10 03:32:28,-23.65,-70.4,56.48,78,34,4.45
176,Karaman,TR,2022-09-10 03:35:19,37.0833,33.25,57.0,39,0,2.82
177,Talaya,RU,2022-09-10 03:36:19,61.3833,152.75,48.27,85,100,1.97
178,Heinola,FI,2022-09-10 03:36:19,61.2056,26.0381,37.99,92,65,2.59
179,Haines Junction,CA,2022-09-10 03:36:20,60.7522,-137.5108,48.15,57,32,5.75
180,Cabo San Lucas,MX,2022-09-10 03:36:20,22.8909,-109.9124,80.62,86,63,5.01
181,Carbonia,IT,2022-09-10 03:36:20,39.1672,8.5222,71.01,74,93,6.46
182,Olafsvik,IS,2022-09-10 03:36:21,64.8945,-23.7142,53.11,85,96,10.96
183,Longfeng,CN,2022-09-10 03:36:21,46.55,125.1167,81.73,29,26,11.72
184,Imbituba,BR,2022-09-10 03:36:21,-28.24,-48.6703,59.5,89,99,19.01
185,Abnub,EG,2022-09-10 03:36:21,27.2696,31.1511,75.42,59,0,10.8
186,Vanavara,RU,2022-09-10 03:36:22,60.34,102.2797,50.04,60,100,10.54
187,Kahului,US,2022-09-10 03:36:23,20.8947,-156.47,84.22,76,100,19.57
188,Bambanglipuro,ID,2022-09-10 03:36:23,-7.95,110.2833,82.72,73,40,10.11
189,Coquimbo,CL,2022-09-10 03:34:35,-29.9533,-71.3436,51.53,87,0,3.44
190,Wanxian,CN,2022-09-10 03:36:24,30.8039,108.3897,85.46,58,44,3.29
191,Areosa,PT,2022-09-10 03:36:24,41.7178,-8.8571,63.27,80,3,2.51
192,Iqaluit,CA,2022-09-10 03:36:24,63.7506,-68.5145,38.93,100,100,23.02
193,Margate,GB,2022-09-10 03:36:25,51.3813,1.3862,59.7,92,6,1.01
194,Chateauneuf-Les-Martigues,FR,2022-09-10 03:36:25,43.3833,5.1667,69.53,53,0,9.22
195,Lafia,NG,2022-09-10 03:36:25,8.4833,8.5167,71.58,93,95,2.89
196,Coahuayana,MX,2022-09-10 03:36:26,18.7333,-103.6833,77.36,95,100,1.99
197,Lebu,CL,2022-09-10 03:33:53,-37.6167,-73.65,44.98,87,1,16.04
198,Christchurch,NZ,2022-09-10 03:34:00,-43.5333,172.6333,57.33,76,75,20.71
199,Kuusamo,FI,2022-09-10 03:36:26,65.9667,29.1833,44.64,93,100,6.91
200,Arlit,NE,2022-09-10 03:36:26,18.7369,7.3853,92.01,18,91,6.62
201,Comodoro Rivadavia,AR,2022-09-10 03:35:32,-45.8667,-67.5,51.66,54,0,9.22
202,Hasaki,JP,2022-09-10 03:36:27,35.7333,140.8333,84.29,71,27,20.18
203,Deputatskiy,RU,2022-09-10 03:36:27,69.3,139.9,37.35,96,100,2.73
204,Gogrial,SS,2022-09-10 03:36:27,8.5332,28.1004,70.47,96,100,4.74
205,Bacalar,MX,2022-09-10 03:36:27,18.6667,-88.3833,80.71,89,75,0.0
206,Grindavik,IS,2022-09-10 03:36:28,63.8424,-22.4338,57.15,100,100,6.91
207,Plavinas,LV,2022-09-10 03:36:28,56.6178,25.7255,38.95,78,83,5.61
208,Port Blair,IN,2022-09-10 03:36:28,11.6667,92.75,84.24,74,75,12.66
209,Lima,PE,2022-09-10 03:31:30,-12.0432,-77.0282,59.9,85,100,12.66
210,Omboue,GA,2022-09-10 03:36:28,-1.5746,9.2618,74.91,86,100,6.87
211,Logan,US,2022-09-10 03:34:47,41.7355,-111.8344,66.22,34,100,12.66
212,Along,IN,2022-09-10 03:36:29,28.1667,94.7667,85.35,53,85,0.4
213,Nelson Bay,AU,2022-09-10 03:36:29,-32.7167,152.15,69.12,67,18,11.01
214,Mizdah,LY,2022-09-10 03:36:29,31.4451,12.9801,70.84,53,0,3.06
215,Dingle,PH,2022-09-10 03:33:32,10.9995,122.6711,84.56,77,100,9.26
216,Maua,BR,2022-09-10 03:36:30,-23.6678,-46.4614,77.36,45,40,5.19
217,Acajutla,SV,2022-09-10 03:36:30,13.5928,-89.8275,79.77,83,98,2.57
218,Wajima,JP,2022-09-10 03:36:30,37.4,136.9,84.88,61,75,9.22
219,Kurilsk,RU,2022-09-10 03:36:30,45.2333,147.8833,61.7,61,0,7.11
220,Fomboni,KM,2022-09-10 03:36:31,-12.28,43.7425,75.9,73,6,8.16
221,Teya,RU,2022-09-10 03:36:31,60.3778,92.6267,47.61,84,100,10.45
222,Changli,CN,2022-09-10 03:36:31,39.7042,119.1506,79.23,54,100,8.59
223,Campbell River,CA,2022-09-10 03:36:31,50.0163,-125.2446,65.73,63,0,3.44
224,Touros,BR,2022-09-10 03:36:32,-5.1989,-35.4608,73.6,84,0,12.88
225,Grants,US,2022-09-10 03:35:34,35.1473,-107.8514,68.23,40,0,13.8
226,Ahipara,NZ,2022-09-10 03:37:32,-35.1667,173.1667,58.89,64,20,4.79
227,Ostrovnoy,RU,2022-09-10 03:37:32,68.0531,39.5131,48.29,85,100,9.6
228,Georgetown,MY,2022-09-10 03:33:05,5.4112,100.3354,87.73,73,20,8.05
229,Sambava,MG,2022-09-10 03:37:33,-14.2667,50.1667,67.89,77,15,7.56
230,Esmeraldas,BR,2022-09-10 03:37:33,-19.7625,-44.3139,68.86,53,0,5.66
231,Manakara,MG,2022-09-10 03:37:33,-22.1333,48.0167,64.62,83,2,2.71
232,Katsuura,JP,2022-09-10 03:35:56,35.1333,140.3,79.43,71,65,21.14
233,Norman Wells,CA,2022-09-10 03:37:33,65.282,-126.8329,55.44,67,75,5.75
234,Siocon,PH,2022-09-10 03:37:34,7.7061,122.1353,86.23,66,89,6.29
235,Saskylakh,RU,2022-09-10 03:37:34,71.9167,114.0833,41.31,90,100,5.99
236,Padang,ID,2022-09-10 03:37:34,-0.9492,100.3543,82.45,61,100,2.59
237,Gisborne,NZ,2022-09-10 03:37:34,-38.6533,178.0042,50.22,88,100,13.96
238,Avera,US,2022-09-10 03:37:35,33.194,-82.5271,69.85,96,100,10.51
239,Lieksa,FI,2022-09-10 03:37:35,63.3167,30.0167,48.78,79,100,8.72
240,Mabaruma,GY,2022-09-10 03:37:35,8.2,-59.7833,72.64,98,15,2.62
241,Qaqortoq,GL,2022-09-10 03:37:36,60.7167,-46.0333,47.62,66,100,4.65
242,Guatire,VE,2022-09-10 03:37:36,10.4762,-66.5427,72.63,94,80,2.91
243,Vilyuysk,RU,2022-09-10 03:37:36,63.7553,121.6247,39.94,66,99,13.78
244,Uhlove,UA,2022-09-10 03:37:36,44.8215,33.6045,63.01,64,88,5.17
245,North Bend,US,2022-09-10 03:37:37,43.4065,-124.2243,77.92,65,100,5.75
246,Adrar,MR,2022-09-10 03:37:37,20.5022,-10.0711,91.13,23,42,13.49
247,Bonavista,CA,2022-09-10 03:34:09,48.6499,-53.1147,55.45,85,100,10.76
248,Chapais,CA,2022-09-10 03:37:37,49.7834,-74.8492,64.18,71,5,7.07
249,San Cristobal,VE,2022-09-10 03:37:37,7.7669,-72.225,77.18,93,34,2.35
250,Port Shepstone,ZA,2022-09-10 03:37:38,-30.7414,30.455,64.0,82,0,3.11
251,Xihe,CN,2022-09-10 03:37:38,31.6864,113.4659,88.81,35,1,4.76
252,Biak,ID,2022-09-10 03:34:49,-0.9131,122.8766,80.67,74,79,8.48
253,Novyy Urengoy,RU,2022-09-10 03:37:38,66.0833,76.6333,42.3,60,94,10.36
254,Andenes,NO,2022-09-10 03:37:38,69.3143,16.1194,48.18,87,75,12.66
255,Xintai,CN,2022-09-10 03:37:39,35.9006,117.7519,82.08,45,69,1.68
256,Nanortalik,GL,2022-09-10 03:37:39,60.1432,-45.2371,44.49,80,100,8.21
257,Niquelandia,BR,2022-09-10 03:37:39,-14.4739,-48.4597,73.56,31,1,3.98
258,Kuloy,RU,2022-09-10 03:37:39,61.0305,42.4925,45.1,80,100,5.23
259,Lethem,GY,2022-09-10 03:37:40,3.3803,-59.7968,76.35,80,81,6.11
260,Mashhad,IR,2022-09-10 03:37:04,36.297,59.6062,71.74,60,20,6.91
261,Vardo,NO,2022-09-10 03:34:19,70.3705,31.1107,48.18,87,100,11.5
262,Lorengau,PG,2022-09-10 03:37:40,-2.0226,147.2712,85.17,69,99,10.02
263,Aguimes,ES,2022-09-10 03:37:40,27.9054,-15.4461,72.23,73,20,19.57
264,Hamilton,US,2022-09-10 03:37:10,39.1834,-84.5333,74.98,86,0,1.01
265,Surt,LY,2022-09-10 03:37:41,31.2089,16.5887,74.79,68,0,4.85
266,Uribia,CO,2022-09-10 03:37:41,11.7139,-72.266,85.12,70,97,13.67
267,Sur,OM,2022-09-10 03:37:41,22.5667,59.5289,85.42,55,56,0.72
268,Ilulissat,GL,2022-09-10 03:37:41,69.2167,-51.1,42.82,75,100,1.14
269,Sangeru,RO,2022-09-10 03:37:42,45.1333,26.35,66.33,84,76,6.11
270,Edeia,BR,2022-09-10 03:37:42,-17.3383,-49.9314,76.96,27,17,5.17
271,Araouane,ML,2022-09-10 03:37:42,18.9048,-3.5265,91.63,34,62,15.75
272,Airai,TL,2022-09-10 03:37:43,-8.9266,125.4092,81.55,27,1,2.98
273,Ambon,ID,2022-09-10 03:38:43,-3.6954,128.1814,80.74,89,75,8.05
274,Aklavik,CA,2022-09-10 03:33:49,68.2191,-135.0107,46.98,75,100,3.33
275,Shiliguri,IN,2022-09-10 03:38:43,26.7,88.4333,88.39,61,59,5.1
276,Atuona,PF,2022-09-10 03:38:43,-9.8,-139.0333,76.59,77,29,26.78
277,Urucara,BR,2022-09-10 03:38:44,-2.5364,-57.76,75.2,72,29,1.97
278,Manaure,CO,2022-09-10 03:38:44,11.7751,-72.4445,85.03,72,99,13.94
279,San,ML,2022-09-10 03:38:44,13.3034,-4.8956,75.24,81,97,6.73
280,Kaabong,UG,2022-09-10 03:38:44,3.4836,34.1492,63.36,75,59,2.55
281,Shingu,JP,2022-09-10 03:38:45,33.7333,135.9833,80.01,86,37,4.14
282,La Ronge,CA,2022-09-10 03:38:45,55.1001,-105.2842,48.45,71,75,5.75
283,Aitape,PG,2022-09-10 03:38:45,-3.1374,142.3475,85.46,70,61,8.1
284,Geraldton,AU,2022-09-10 03:38:45,-28.7667,114.6,70.21,49,2,10.36
285,Domodossola,IT,2022-09-10 03:38:46,46.1165,8.2931,60.71,83,1,7.16
286,Bilma,NE,2022-09-10 03:38:46,18.6853,12.9164,88.52,16,77,12.77
287,Torbay,CA,2022-09-10 03:35:33,47.6666,-52.7314,57.58,91,100,10.36
288,Ruidoso,US,2022-09-10 03:38:46,33.3317,-105.673,66.34,46,99,5.75
289,Hofn,IS,2022-09-10 03:38:46,64.2539,-15.2082,52.52,97,100,8.97
290,Astoria,US,2022-09-10 03:38:47,46.1879,-123.8313,74.71,46,0,14.97
291,Kirakira,SB,2022-09-10 03:36:22,-10.4544,161.9205,81.84,77,42,10.49
292,Lakatoro,VU,2022-09-10 03:34:12,-16.0999,167.4164,82.33,69,44,14.79
293,Quesnel,CA,2022-09-10 03:38:47,52.9999,-122.5029,54.1,82,0,0.0
294,Mitsamiouli,KM,2022-09-10 03:38:47,-11.3847,43.2844,75.02,72,21,5.3
295,Bull Savanna,JM,2022-09-10 03:38:48,17.8868,-77.5902,77.56,84,3,6.58
296,Portsmouth,GB,2022-09-10 03:38:48,50.799,-1.0913,58.96,97,11,3.0
297,Leningradskiy,RU,2022-09-10 03:35:54,69.3833,178.4167,45.72,60,12,10.85
298,Tuensang,IN,2022-09-10 03:38:48,26.2833,94.8333,86.22,50,22,1.05
299,Redmond,US,2022-09-10 03:35:50,47.674,-122.1215,73.58,65,0,3.67
300,Shizunai,JP,2022-09-10 03:34:27,42.3339,142.3669,69.37,70,0,8.99
301,San Luis,AR,2022-09-10 03:38:49,-33.295,-66.3356,43.75,32,0,5.28
302,Buraydah,SA,2022-09-10 03:38:49,26.326,43.975,79.25,20,0,6.11
303,Bethel,US,2022-09-10 03:38:49,41.3712,-73.414,65.16,81,0,4.61
304,Palafrugell,ES,2022-09-10 03:37:49,41.9174,3.1631,68.72,55,48,1.01
305,Neryungri,RU,2022-09-10 03:38:49,56.6709,124.6491,45.1,81,100,5.68
306,Kudahuvadhoo,MV,2022-09-10 03:38:50,2.6708,72.8944,82.33,73,68,13.38
307,Fortuna,US,2022-09-10 03:35:32,40.5982,-124.1573,64.09,79,0,3.33
308,Kruisfontein,ZA,2022-09-10 03:34:39,-34.0033,24.7314,57.88,95,10,3.18
309,Upata,VE,2022-09-10 03:38:50,8.0086,-62.3989,71.87,90,32,5.06
310,Pacific Grove,US,2022-09-10 03:38:50,36.6177,-121.9166,64.2,88,40,1.01
311,Westport,US,2022-09-10 03:36:26,41.1415,-73.3579,69.75,82,0,1.99
312,Flagstaff,US,2022-09-10 03:38:51,35.1981,-111.6513,69.46,70,0,3.44
313,Tortoli,IT,2022-09-10 03:38:51,39.9256,9.6572,75.02,73,0,6.91
314,Camana,PE,2022-09-10 03:38:51,-16.6228,-72.7111,59.38,84,50,9.06
315,Inongo,CD,2022-09-10 03:38:51,-1.95,18.2667,68.38,92,85,5.17
316,Kapuskasing,CA,2022-09-10 03:36:03,49.4169,-82.4331,55.49,100,100,4.61
317,Correntina,BR,2022-09-10 03:38:52,-13.3433,-44.6367,68.41,49,0,3.27
318,Novokayakent,RU,2022-09-10 03:38:52,42.3937,47.9861,67.84,60,43,2.89
319,Korla,CN,2022-09-10 03:38:52,41.7597,86.1469,88.7,15,3,5.79
320,Vitim,RU,2022-09-10 03:38:52,59.4511,112.5578,51.8,59,94,9.31
321,Mosquera,CO,2022-09-10 03:39:53,4.7059,-74.2302,53.69,76,20,3.44
322,Sturgeon Bay,US,2022-09-10 03:39:53,44.8342,-87.377,68.4,76,48,11.14
323,Wilmington,US,2022-09-10 03:35:09,34.2257,-77.9447,77.9,76,100,9.22
324,Cabedelo,BR,2022-09-10 03:39:53,-6.9811,-34.8339,72.27,79,16,9.71
325,Saint-Pierre,RE,2022-09-10 03:39:54,-21.3393,55.4781,74.57,60,0,3.44
326,Dengzhou,CN,2022-09-10 03:39:54,37.8086,120.7508,78.57,51,64,9.33
327,Salalah,OM,2022-09-10 03:39:54,17.0151,54.0924,77.09,94,75,2.3
328,Riohacha,CO,2022-09-10 03:39:54,11.5444,-72.9072,79.2,85,97,6.73
329,Pasuquin,PH,2022-09-10 03:39:55,18.3328,120.6177,87.75,62,20,5.75
330,Hobyo,SO,2022-09-10 03:39:55,5.3505,48.5268,76.57,81,89,19.15
331,Baijiantan,CN,2022-09-10 03:39:55,45.6333,85.1833,79.3,20,72,9.26
332,Preobrazheniye,RU,2022-09-10 03:39:55,42.9019,133.9064,69.96,60,1,7.07
333,Telemaco Borba,BR,2022-09-10 03:39:56,-24.3239,-50.6156,67.66,72,80,1.25
334,Joao Pinheiro,BR,2022-09-10 03:39:56,-17.7425,-46.1725,68.38,38,0,5.17
335,Berlevag,NO,2022-09-10 03:39:56,70.8578,29.0864,48.2,87,100,13.8
336,Vostok,RU,2022-09-10 03:39:57,46.4856,135.8833,70.18,40,0,3.47
337,Banepa,NP,2022-09-10 03:39:57,27.6298,85.5214,71.92,78,75,0.0
338,Asyut,EG,2022-09-10 03:39:57,27.181,31.1837,75.38,58,0,11.25
339,Surinam,SR,2022-09-10 03:39:57,4.0,-56.0,73.18,83,77,1.25
340,Clyde River,CA,2022-09-10 03:39:58,70.4692,-68.5914,37.63,100,100,4.61
341,Pontivy,FR,2022-09-10 03:39:58,48.0,-3.0,59.29,96,100,5.53
342,Sao Joao Da Barra,BR,2022-09-10 03:39:58,-21.6403,-41.0511,69.55,83,0,19.64
343,Kutum,SD,2022-09-10 03:39:58,14.2,24.6667,72.9,60,100,4.09
344,Saint-Joseph,RE,2022-09-10 03:39:59,-21.3667,55.6167,73.47,67,41,11.03
345,Port Hawkesbury,CA,2022-09-10 03:39:59,45.6169,-61.3485,62.19,89,0,4.0
346,Burnie,AU,2022-09-10 03:39:59,-41.0667,145.9167,52.79,88,100,17.27
347,Kaoma,ZM,2022-09-10 03:39:59,-14.7833,24.8,56.89,48,3,5.93
348,Tartagal,AR,2022-09-10 03:40:00,-22.5164,-63.8013,54.52,36,18,4.85
349,Pouso Alegre,BR,2022-09-10 03:39:52,-22.23,-45.9364,69.85,41,52,1.54
350,Nantucket,US,2022-09-10 03:40:00,41.2835,-70.0995,64.51,88,0,4.61
351,Rio Grande,BR,2022-09-10 03:40:00,-32.035,-52.0986,47.95,67,100,18.23
352,Toktogul,KG,2022-09-10 03:40:00,41.8708,72.9402,74.86,33,0,1.21
353,Ceuta,ES,2022-09-10 03:40:01,35.8903,-5.3075,69.84,78,11,2.28
354,Saravan,AM,2022-09-10 03:40:01,39.7196,45.6483,59.22,48,0,3.98
355,Gunnedah,AU,2022-09-10 03:40:01,-30.9833,150.25,62.13,60,60,18.25
356,Henties Bay,NA,2022-09-10 03:40:02,-22.116,14.2845,55.29,86,0,5.46
357,Axim,GH,2022-09-10 03:40:03,4.8699,-2.2405,74.71,90,99,9.15
358,Deniliquin,AU,2022-09-10 03:40:03,-35.5333,144.9667,57.79,59,78,16.55
359,Saint-Augustin,CA,2022-09-10 03:40:03,51.226,-58.6502,55.31,81,7,6.8
360,Suamico,US,2022-09-10 03:40:04,44.6319,-88.0393,71.76,78,0,6.91
361,Rognan,NO,2022-09-10 03:40:06,67.0953,15.3878,44.89,86,93,1.83
362,Isangel,VU,2022-09-10 03:40:06,-19.55,169.2667,86.11,62,75,4.61
363,Kurumkan,RU,2022-09-10 03:40:06,54.3,110.3,60.64,46,47,3.69
364,Flinders,AU,2022-09-10 03:40:07,-34.5833,150.8552,67.37,62,49,15.9
365,Mojoagung,ID,2022-09-10 03:40:07,-7.5667,112.35,87.08,56,93,0.2
366,Quatre Cocos,MU,2022-09-10 03:40:07,-20.2078,57.7625,70.09,74,93,16.2
367,Mathathane,BW,2022-09-10 03:40:08,-22.2687,28.7495,60.85,43,0,4.83
368,Gat,IL,2022-09-10 03:40:08,31.61,34.7642,74.39,67,0,3.09
369,Atar,MR,2022-09-10 03:41:09,20.5169,-13.0499,87.03,46,90,1.5
370,Neiafu,TO,2022-09-10 03:41:09,-18.65,-173.9833,79.48,73,40,6.91
371,Shieli,KZ,2022-09-10 03:41:09,44.1667,66.75,75.61,17,32,5.64
372,Cayeli,TR,2022-09-10 03:41:10,41.0923,40.7292,66.74,65,0,3.13
373,Sabha,LY,2022-09-10 03:41:10,27.0377,14.4283,72.73,35,0,9.42
374,Casablanca,MA,2022-09-10 03:40:41,33.5928,-7.6192,73.33,83,64,8.99
375,Bambous Virieux,MU,2022-09-10 03:41:10,-20.3428,57.7575,70.21,73,75,12.66
376,Wanning,CN,2022-09-10 03:41:11,18.8003,110.3967,86.85,61,78,6.06
377,Marsa Matruh,EG,2022-09-10 03:41:11,31.3525,27.2453,70.0,78,0,5.75
378,Kyaikto,MM,2022-09-10 03:41:11,17.3,97.0167,78.64,90,100,5.59
379,Necochea,AR,2022-09-10 03:37:16,-38.5473,-58.7368,40.96,78,6,11.27
380,Tekeli,KZ,2022-09-10 03:41:13,44.83,78.8239,76.15,29,77,5.14
381,Banff,CA,2022-09-10 03:41:13,51.1762,-115.5698,43.5,70,5,1.14
382,Tuxtepec,MX,2022-09-10 03:41:14,18.1,-96.1167,74.97,88,79,2.51
383,Tateyama,JP,2022-09-10 03:41:14,34.9833,139.8667,82.06,67,44,15.99
384,Petrovsk,RU,2022-09-10 03:41:14,52.3064,45.3917,42.12,67,5,9.35
385,Udachnyy,RU,2022-09-10 03:41:14,66.4167,112.4,36.61,70,100,25.3
386,Uvarovka,RU,2022-09-10 03:41:15,55.5278,35.6061,38.19,74,0,2.91
387,Tessalit,ML,2022-09-10 03:41:15,20.1986,1.0114,81.81,52,3,10.4
388,Pangnirtung,CA,2022-09-10 03:41:15,66.1451,-65.7125,50.83,75,100,10.54
389,Paita,PE,2022-09-10 03:41:16,-5.0892,-81.1144,62.26,86,6,12.68
390,Muroto,JP,2022-09-10 03:41:16,33.2833,134.15,80.85,80,83,14.2
391,Birin,NP,2022-09-10 03:41:16,26.8865,88.0718,74.17,61,80,3.58
392,Miyako,JP,2022-09-10 03:41:17,39.6367,141.9525,73.54,72,28,11.25
393,Tallahassee,US,2022-09-10 03:39:15,30.4383,-84.2807,76.84,95,40,5.75
394,Boshnyakovo,RU,2022-09-10 03:41:17,49.6333,142.1667,63.82,50,0,13.11
395,Karoi,ZW,2022-09-10 03:41:17,-16.8099,29.6925,56.08,60,0,5.32
396,Lagos,NG,2022-09-10 03:40:17,6.5833,3.75,75.52,92,54,5.39
397,San Angelo,US,2022-09-10 03:41:18,31.4638,-100.437,84.54,47,0,10.36
398,Luis Correia,BR,2022-09-10 03:41:18,-2.8792,-41.6669,75.85,83,3,11.48
399,Shitanjing,CN,2022-09-10 03:41:19,39.2342,106.3439,69.26,41,0,9.6
400,Waddan,LY,2022-09-10 03:41:19,29.1614,16.139,68.43,70,0,5.37
401,Cocal,BR,2022-09-10 03:41:19,-28.6167,-49.35,58.66,90,94,5.61
402,San Policarpo,PH,2022-09-10 03:41:19,12.1791,125.5072,83.79,74,100,6.4
403,Vagur,FO,2022-09-10 03:41:20,61.4732,-6.8119,51.58,86,62,10.13
404,Puerto Escondido,MX,2022-09-10 03:36:39,15.85,-97.0667,79.63,65,75,6.91
405,Tilichiki,RU,2022-09-10 03:41:20,60.4667,166.1,49.33,95,100,7.36
406,Broome,US,2022-09-10 03:41:20,42.2506,-75.833,66.58,82,0,5.75
407,Acapulco,MX,2022-09-10 03:38:38,16.8634,-99.8901,80.42,83,100,5.75
408,Mana,GF,2022-09-10 03:41:21,5.6592,-53.7767,77.04,89,90,8.79
409,Senneterre,CA,2022-09-10 03:41:21,48.3835,-77.2328,60.01,79,2,7.14
410,Pevek,RU,2022-09-10 03:41:21,69.7008,170.3133,46.08,70,19,12.33
411,Ayagoz,KZ,2022-09-10 03:41:22,47.9714,80.4392,61.99,22,2,9.24
412,Petropavlovka,RU,2022-09-10 03:41:22,50.6114,105.3196,52.88,74,100,4.18
413,Marsh Harbour,BS,2022-09-10 03:41:22,26.5412,-77.0636,85.26,71,29,6.53
414,Duldurga,RU,2022-09-10 03:42:22,50.6761,113.5931,72.21,39,34,12.5
415,Igrim,RU,2022-09-10 03:42:23,63.1906,64.4162,41.77,82,98,2.3
416,Consolacion Del Sur,CU,2022-09-10 03:42:23,22.5047,-83.5136,76.1,90,99,3.06
417,Batagay-Alyta,RU,2022-09-10 03:42:23,67.8006,130.4114,49.19,47,100,12.44
418,Mach,PK,2022-09-10 03:42:23,29.8637,67.3298,84.99,40,0,0.49
419,Florianopolis,BR,2022-09-10 03:42:24,-27.6146,-48.5012,67.23,83,0,10.36
420,San Rafael,AR,2022-09-10 03:42:24,-34.6177,-68.3301,48.6,27,0,8.48
421,Vestmanna,FO,2022-09-10 03:42:24,62.1564,-7.1664,45.52,93,41,4.61
422,Corinto,GR,2022-09-10 03:39:21,37.9407,22.9573,72.9,61,0,4.61
423,Umm Lajj,SA,2022-09-10 03:42:25,25.0213,37.2685,84.65,63,0,6.44
424,Laguna,US,2022-09-10 03:42:25,38.421,-121.4238,93.34,32,0,8.05
425,Severo-Kurilsk,RU,2022-09-10 03:42:25,50.6789,156.125,55.49,71,1,17.74
426,Moindou,NC,2022-09-10 03:42:25,-21.6924,165.677,80.46,62,23,2.91
427,Nome,US,2022-09-10 03:42:26,64.5011,-165.4064,50.16,76,40,17.27
428,Husavik,IS,2022-09-10 03:42:26,66.0449,-17.3389,52.92,79,98,7.31
429,Kasempa,ZM,2022-09-10 03:42:26,-13.4584,25.8338,58.82,49,19,5.23
430,Yemelyanovo,RU,2022-09-10 03:42:26,56.1681,92.6767,49.01,81,0,0.0
431,Archidona,ES,2022-09-10 03:42:27,37.0965,-4.3887,71.91,48,2,3.18
432,Jadu,LY,2022-09-10 03:42:27,31.953,12.0261,74.32,39,0,11.77
433,Pervomayskiy,RU,2022-09-10 03:42:27,53.2485,40.2871,41.79,65,6,4.14
434,Shinpokh,PK,2022-09-10 03:42:28,34.3292,71.1782,86.34,62,13,4.29
435,Zharkent,KZ,2022-09-10 03:42:28,44.1628,80.0,82.08,25,48,9.35
436,Nynashamn,SE,2022-09-10 03:42:28,58.9034,17.9479,51.12,68,68,11.83
437,Srivardhan,IN,2022-09-10 03:42:28,18.0333,73.0167,79.59,88,99,7.16
438,Shubarkuduk,KZ,2022-09-10 03:42:29,49.1447,56.4872,51.51,75,76,14.36
439,Alliston,CA,2022-09-10 03:42:29,44.1501,-79.8663,66.83,77,0,4.61
440,Xixiang,CN,2022-09-10 03:42:29,35.1628,112.865,72.03,77,100,1.97
441,Zhigansk,RU,2022-09-10 03:42:29,66.7697,123.3711,41.7,77,100,21.47
442,Santa Cruz,BO,2022-09-10 03:38:38,-17.8,-63.1667,76.46,29,75,13.8
443,Port Moresby,PG,2022-09-10 03:40:04,-9.4431,147.1797,85.42,74,40,14.97
444,The Valley,AI,2022-09-10 03:42:30,18.217,-63.0578,84.06,78,96,11.79
445,Marang,MY,2022-09-10 03:42:30,5.2056,103.2059,82.31,82,96,1.52
446,Taoudenni,ML,2022-09-10 03:42:30,22.6783,-3.9836,93.81,13,62,6.31
447,Kupang,ID,2022-09-10 03:42:31,-10.1667,123.5833,87.12,54,50,5.7
448,Snezhnogorsk,RU,2022-09-10 03:42:31,69.1933,33.2531,46.18,88,94,9.51
449,Belinskiy,RU,2022-09-10 03:42:31,52.9647,43.4165,40.68,69,3,6.93
450,Manado,ID,2022-09-10 03:42:31,1.487,124.8455,86.77,74,40,3.44
451,Mwense,ZM,2022-09-10 03:42:32,-10.3845,28.698,67.59,42,59,6.31
452,Houma,US,2022-09-10 03:38:06,29.5958,-90.7195,73.0,94,0,0.0
453,Cockburn Town,TC,2022-09-10 03:38:13,21.4612,-71.1419,83.71,77,15,12.17
454,Katobu,ID,2022-09-10 03:42:32,-4.9408,122.5276,90.61,42,50,0.16
455,Del Rio,US,2022-09-10 03:42:32,29.3627,-100.8968,84.31,75,0,4.61
456,Bayanday,RU,2022-09-10 03:42:32,53.0661,105.5139,55.87,45,6,7.67
457,Kysyl-Syr,RU,2022-09-10 03:43:33,63.8986,122.7617,40.44,68,100,13.69
458,Muzhi,RU,2022-09-10 03:43:33,65.3667,64.6667,42.22,81,100,6.87
459,Lancaster,US,2022-09-10 03:39:23,40.2504,-76.2499,66.09,84,0,3.44
460,Praia Da Vitoria,PT,2022-09-10 03:43:33,38.7333,-27.0667,71.85,83,20,15.95
461,Xiaoweizhai,CN,2022-09-10 03:43:34,26.1903,107.5125,78.53,54,95,5.91
462,Remontnoye,RU,2022-09-10 03:43:34,46.5614,43.6501,51.1,57,6,9.86
463,Rocha,UY,2022-09-10 03:43:34,-34.4833,-54.3333,45.93,69,80,13.33
464,Xining,CN,2022-09-10 03:43:34,36.6167,101.7667,64.58,38,0,1.88
465,Sangar,RU,2022-09-10 03:43:35,63.9242,127.4739,39.65,94,100,10.36
466,Kuito,AO,2022-09-10 03:43:35,-12.3833,16.9333,55.94,33,14,2.48
467,Rorvik,NO,2022-09-10 03:43:35,64.8621,11.2373,41.11,93,19,2.3
468,Valparaiso,CL,2022-09-10 03:40:45,-33.0393,-71.6273,55.0,92,0,3.44
469,Mayo,US,2022-09-10 03:43:35,38.8876,-76.5119,71.94,88,15,4.0
470,Yerkoy,TR,2022-09-10 03:43:36,39.6381,34.4672,61.3,36,0,2.8
471,Mineros,BO,2022-09-10 03:43:36,-17.1167,-63.2333,75.99,22,68,13.85
472,Paredon,MX,2022-09-10 03:43:36,16.0333,-93.8667,80.04,79,71,4.14
473,Bowen,AU,2022-09-10 03:43:37,-20.0167,148.2333,76.39,69,0,11.54
474,Bluefields,NI,2022-09-10 03:43:37,12.0137,-83.7635,77.41,91,100,2.68
475,Yazman,PK,2022-09-10 03:43:37,29.1212,71.7446,98.46,32,0,8.28
476,Sao Borja,BR,2022-09-10 03:43:37,-28.6606,-56.0044,49.95,77,85,12.86
477,Aloleng,PH,2022-09-10 03:43:38,16.1307,119.7824,84.7,70,80,8.7
478,Brzeziny,PL,2022-09-10 03:40:48,51.8002,19.7514,58.06,89,100,4.81
479,San Quintin,MX,2022-09-10 03:42:49,30.4833,-115.95,74.46,82,100,20.71
480,Kropotkin,RU,2022-09-10 03:43:38,45.4375,40.5756,56.59,50,35,13.09
481,Masuguru,TZ,2022-09-10 03:43:38,-11.3667,38.4167,71.87,69,100,3.91
482,Talnakh,RU,2022-09-10 03:43:38,69.4865,88.3972,35.91,99,100,4.25
483,Domoni,KM,2022-09-10 03:43:39,-12.2569,44.5319,74.41,78,54,4.43
484,Vao,NC,2022-09-10 03:43:39,-22.6667,167.4833,73.11,81,66,12.68
485,Stromness,GB,2022-09-10 03:43:39,58.965,-3.296,50.88,91,78,1.99
486,Nouadhibou,MR,2022-09-10 03:43:40,20.931,-17.0347,73.38,83,40,12.66
487,Jurm,AF,2022-09-10 03:43:40,36.8648,70.8342,73.87,22,0,0.31
488,Kilindoni,TZ,2022-09-10 03:43:40,-7.9139,39.6668,74.73,80,41,9.8
489,Lekoni,GA,2022-09-10 03:43:40,-1.5843,14.2591,70.99,89,78,5.79
490,Komsomolskiy,UZ,2022-09-10 03:43:41,40.4272,71.7189,79.52,31,0,2.3
491,Divnogorsk,RU,2022-09-10 03:43:41,55.9594,92.3619,52.29,50,77,6.8
492,Panguipulli,CL,2022-09-10 03:43:41,-39.6333,-72.3333,37.09,98,73,2.55
493,Cordon,PH,2022-09-10 03:43:41,16.6744,121.4658,86.67,68,100,3.33
494,Samarai,PG,2022-09-10 03:43:42,-10.6167,150.6667,82.63,75,3,8.46
495,Roald,NO,2022-09-10 03:43:42,62.5833,6.1333,52.75,100,20,6.91
496,Vila Franca Do Campo,PT,2022-09-10 03:43:42,37.7167,-25.4333,72.19,87,54,14.34
497,Namatanai,PG,2022-09-10 03:43:42,-3.6667,152.4333,83.57,69,75,8.37
498,Kenora,CA,2022-09-10 03:43:43,49.8167,-94.4337,58.17,54,75,5.75
499,Lukovetskiy,RU,2022-09-10 03:43:43,64.2956,41.9211,45.32,92,100,3.83
500,Kodino,RU,2022-09-10 03:43:43,63.7198,39.6447,43.27,84,100,5.61
501,Qasigiannguit,GL,2022-09-10 03:43:43,68.8193,-51.1922,43.05,91,100,0.45
502,Valle De Santiago,MX,2022-09-10 03:43:44,20.3833,-101.2,64.17,77,100,2.93
503,Lethbridge,CA,2022-09-10 03:41:44,49.7,-112.8186,48.69,66,0,11.5
504,Krasnoselkup,RU,2022-09-10 03:44:44,65.7,82.4667,42.49,56,92,6.98
505,Mayskiy,RU,2022-09-10 03:44:44,47.6931,40.1025,47.61,64,39,9.73
506,Aswan,EG,2022-09-10 03:44:44,24.0934,32.907,81.7,34,0,4.61
507,Dalmau,IN,2022-09-10 03:44:45,26.0667,81.0333,88.99,61,82,9.78
508,Amahai,ID,2022-09-10 03:44:45,-3.3333,128.9167,81.86,77,75,6.17
509,Plouzane,FR,2022-09-10 03:44:45,48.3833,-4.6167,57.52,100,0,5.75
510,Linguere,SN,2022-09-10 03:44:45,15.3953,-15.1193,74.64,92,87,12.57
511,Rioblanco,CO,2022-09-10 03:44:46,3.5308,-75.6806,62.49,88,92,4.38
512,Angoche,MZ,2022-09-10 03:44:46,-16.2325,39.9086,68.79,87,2,4.52
513,Tongchuan,CN,2022-09-10 03:44:46,35.0806,109.0897,72.81,60,23,3.87
514,Humaita,BR,2022-09-10 03:44:46,-7.5061,-63.0208,77.88,66,6,0.58
515,Kloulklubed,PW,2022-09-10 03:44:47,7.0419,134.2556,84.7,64,85,1.01
516,Los Llanos De Aridane,ES,2022-09-10 03:44:47,28.6585,-17.9182,71.35,95,0,9.22
517,Ust-Ishim,RU,2022-09-10 03:44:47,57.6935,71.1665,48.63,77,46,4.47
518,Shelburne,CA,2022-09-10 03:44:47,44.0787,-80.2041,63.59,80,0,7.67
519,Hella,NO,2022-09-10 03:44:48,67.2,14.4333,44.89,93,40,5.75
520,Yarada,IN,2022-09-10 03:44:48,17.65,83.2667,80.92,94,75,8.05
521,Oranjemund,NA,2022-09-10 03:44:48,-28.55,16.4333,53.31,94,1,6.87
522,Mocuba,MZ,2022-09-10 03:44:49,-16.8392,36.9856,66.06,88,0,2.21
523,Goderich,CA,2022-09-10 03:44:49,43.7501,-81.7165,66.52,72,0,6.91
524,Paamiut,GL,2022-09-10 03:44:49,61.994,-49.6678,44.49,75,95,1.68
525,Ritchie,ZA,2022-09-10 03:44:49,-29.038,24.6028,45.61,13,0,3.65
526,Birao,CF,2022-09-10 03:44:50,10.2849,22.7882,70.79,96,100,1.77
527,Thinadhoo,MV,2022-09-10 03:44:50,0.5333,72.9333,81.95,73,53,12.66
528,Bafia,CM,2022-09-10 03:44:50,4.75,11.2333,68.67,99,100,0.96
529,Atakpame,TG,2022-09-10 03:44:50,7.5333,1.1333,68.97,98,98,3.15
530,Lavrentiya,RU,2022-09-10 03:44:51,65.5833,-171.0,49.55,60,5,1.68
531,Macas,EC,2022-09-10 03:40:12,-2.3167,-78.1167,66.13,97,87,1.59
532,Mabay,PH,2022-09-10 03:44:51,6.0577,124.4666,86.14,64,79,5.66
533,Nicolas Bravo,MX,2022-09-10 03:44:51,18.45,-88.9167,75.29,92,99,2.08
534,Perth,AU,2022-09-10 03:42:01,-31.9333,115.8333,70.09,54,20,4.61
535,Beringovskiy,RU,2022-09-10 03:44:51,63.05,179.3167,48.27,77,100,1.59
536,Bitung,ID,2022-09-10 03:44:52,1.4451,125.1824,86.85,67,96,10.38
537,Ulladulla,AU,2022-09-10 03:44:52,-35.35,150.4667,63.07,62,64,6.38
538,Ridgecrest,US,2022-09-10 03:44:52,35.6225,-117.6709,86.02,36,100,1.99
539,Nha Trang,VN,2022-09-10 03:44:30,12.25,109.1833,84.2,68,100,4.83
540,Asau,RO,2022-09-10 03:44:52,46.4333,26.4,61.72,93,61,2.75
541,Eureka,US,2022-09-10 03:42:04,40.8021,-124.1637,64.36,84,0,3.0
542,Seka,TH,2022-09-10 03:44:53,17.9285,103.9552,86.36,66,96,4.38
543,Zhuhai,CN,2022-09-10 03:44:53,22.2769,113.5678,94.86,79,20,5.75
544,Mahanoro,MG,2022-09-10 03:44:53,-19.9,48.8,66.13,76,51,5.77
545,Bonthe,SL,2022-09-10 03:44:54,7.5264,-12.505,75.88,88,100,4.92
546,Barmer,IN,2022-09-10 03:44:54,25.75,71.3833,92.52,46,95,6.8
547,Vanimo,PG,2022-09-10 03:44:54,-2.6741,141.3028,85.6,65,99,9.75
548,Nemuro,JP,2022-09-10 03:44:54,43.3236,145.575,64.45,67,0,11.03
549,Burgeo,CA,2022-09-10 03:44:55,47.6167,-57.6152,57.36,71,100,8.68
550,Franco Da Rocha,BR,2022-09-10 03:44:55,-23.3217,-46.7269,76.68,41,31,2.42
551,Garowe,SO,2022-09-10 03:44:55,8.4054,48.4845,75.65,50,94,21.18
552,Ati,TD,2022-09-10 03:45:55,13.2154,18.3353,77.2,81,100,2.35
553,La Peca,PE,2022-09-10 03:45:56,-5.6111,-78.435,69.84,75,32,3.87
554,Warri,NG,2022-09-10 03:45:56,5.5167,5.75,74.66,91,86,4.7
555,Koumac,NC,2022-09-10 03:45:56,-20.5667,164.2833,79.59,66,3,3.94
556,Port Lincoln,AU,2022-09-10 03:45:56,-34.7333,135.8667,59.18,55,99,5.26
557,Morondava,MG,2022-09-10 03:45:57,-20.2833,44.2833,69.15,67,0,3.0
